objectId,cityName,adminName,countryName,countryCode,status,longitude,latitude,popRank,popClass,portId
2539,Juba,Central Equatoria,South Sudan,OD,National and provincial capital,31.597118555171193,4.84406077135152,4,250,000 to 499,999,0
2538,Invercargill,Southland,New Zealand,NZ,Provincial capital,168.37299943132612,-46.4130000286757,7,Less than 50,000,0
2537,Dunedin,Otago,New Zealand,NZ,Provincial capital,170.47400429276027,-45.88399791933014,5,100,000 to 249,999,55370
2536,Christchurch,Canterbury,New Zealand,NZ,Provincial capital,172.63800034352923,-43.52400004407298,4,250,000 to 499,999,0
2535,Greymouth,Westland,New Zealand,NZ,Provincial capital,171.2070004253916,-42.47199907608136,7,Less than 50,000,55440
2534,Nelson,Nelson-Marlborough,New Zealand,NZ,Provincial capital,173.24800240140607,-41.29700403333523,7,Less than 50,000,55290
2533,New Plymouth,Taranaki,New Zealand,NZ,Provincial capital,174.07800042143177,-39.06999892099623,7,Less than 50,000,55210
2532,Gisborne,East Cape,New Zealand,NZ,Provincial capital,178.01601340107825,-38.65899592764033,7,Less than 50,000,55110
2531,Hamilton,Waikato,New Zealand,NZ,Provincial capital,175.2729933369562,-37.77599696677678,5,100,000 to 249,999,0
2530,Tauranga,Bay of Plenty,New Zealand,NZ,Provincial capital,176.15500237457132,-37.700001078611585,5,100,000 to 249,999,55080
2529,Auckland,Auckland,New Zealand,NZ,Provincial capital,174.76100129292473,-36.90399604989389,4,250,000 to 499,999,55060
2528,Whangarei,Northland,New Zealand,NZ,Provincial capital,174.31598743602558,-35.721000037716216,6,50,000 to 99,999,55050
2527,Yaren,Nauru,Nauru,NR,National capital,166.91670037139244,-0.5166989599046621,7,Less than 50,000,0
2526,Noumea,New Caledonia,New Caledonia,NC,National and provincial capital,165.5000013855865,-21.500000946884306,6,50,000 to 99,999,0
2525,Suva,Fiji,Fiji,FJ,National capital,178.44772535049535,-18.134531971469723,6,50,000 to 99,999,55540
2524,Port Vila,Vanuatu,Vanuatu,NH,National capital,168.3209973498543,-17.739999070248402,7,Less than 50,000,0
2523,Honiara,Solomon Is.,Solomon Is.,BP,National capital,159.95178044148585,-9.433845005639172,6,50,000 to 99,999,57120
2522,Funafuti,Tuvalu,Tuvalu,TV,National capital,179.22188736363637,-8.536499935405013,7,Less than 50,000,0
2521,Port Moresby,National Capital,Papua New Guinea,PP,National capital and provincial capital enclave,147.14794832424772,-9.497187020331216,4,250,000 to 499,999,53160
2520,Alotau,Milne Bay,Papua New Guinea,PP,Provincial capital,150.45000329957858,-10.305998994906686,7,Less than 50,000,53165
2519,Popondetta,Northern,Papua New Guinea,PP,Provincial capital,148.24000841803726,-8.768997029609737,7,Less than 50,000,0
2518,Lae,Morobe,Papua New Guinea,PP,Provincial capital,146.99099733362286,-6.723998954196451,6,50,000 to 99,999,53230
2517,Arawa,Northern Solomons,Papua New Guinea,PP,Provincial capital,155.56599035880149,-6.228000078394133,7,Less than 50,000,0
2516,Kimbe,West New Britain,Papua New Guinea,PP,Provincial capital,150.14301340528385,-5.550002936300014,7,Less than 50,000,56835
2515,Rabaul,East New Britain,Papua New Guinea,PP,Provincial capital,152.17000239053337,-4.204997925458521,7,Less than 50,000,56810
2514,Kavieng,New Ireland,Papua New Guinea,PP,Provincial capital,150.8066733741249,-2.5668179271473273,7,Less than 50,000,56760
2513,Lorengau,Manus,Papua New Guinea,PP,Provincial capital,147.27999634095633,-2.0320020458919474,7,Less than 50,000,56730
2512,Townsville,Queensland,Australia,AS,Other,146.82999629592635,-19.29999598287272,5,100,000 to 249,999,53380
2511,Cairns,Queensland,Australia,AS,Other,145.7100093453187,-16.84999799931935,5,100,000 to 249,999,53340
2510,Daru,Western,Papua New Guinea,PP,Provincial capital,143.23372229672086,-9.109152000466255,7,Less than 50,000,53150
2509,Kerema,Gulf,Papua New Guinea,PP,Provincial capital,145.83799837883802,-7.927001940753638,7,Less than 50,000,0
2508,Mendi,Southern Highlands,Papua New Guinea,PP,Provincial capital,143.65198836787258,-6.141996069496765,7,Less than 50,000,0
2507,Goroka,Eastern Highlands,Papua New Guinea,PP,Provincial capital,145.38699037284076,-6.087995938325577,7,Less than 50,000,0
2506,Kundiawa,Chimbu,Papua New Guinea,PP,Provincial capital,144.9600124144582,-6.022997928657377,7,Less than 50,000,0
2505,Mount Hagen,Western Highlands,Papua New Guinea,PP,Provincial capital,144.2199962995262,-5.865003067111234,7,Less than 50,000,0
2504,Hobart,Tasmania,Australia,AS,Provincial capital,147.2910033210546,-42.85099802622737,7,Less than 50,000,54760
2503,Melbourne,Victoria,Australia,AS,Other,145.0751043135256,-37.85295596983765,2,1,000,000 to 4,999,999,54030
2502,Canberra,Australian Capital Territory,Australia,AS,National and provincial capital,149.04200743036952,-35.350002057001745,4,250,000 to 499,999,0
2501,Adelaide,South Australia,Australia,AS,Provincial capital,138.52082728453283,-34.81167593637049,2,1,000,000 to 4,999,999,54220
2500,Sydney,New South Wales,Australia,AS,Other,151.02819939818542,-33.889769946943375,2,1,000,000 to 4,999,999,53650
2499,Newcastle,New South Wales,Australia,AS,Other,151.7795554463377,-32.92795806958657,4,250,000 to 499,999,53610
2498,Brisbane,Queensland,Australia,AS,Provincial capital,153.02600136855315,-27.453995931682037,3,500,000 to 999,999,53490
2497,Rockhampton,Queensland,Australia,AS,Other,150.48000035697143,-23.429996980857023,6,50,000 to 99,999,0
2496,Wellington,Wellington,New Zealand,NZ,National and provincial capital,174.8072164108394,-41.33484005165742,4,250,000 to 499,999,55150
2495,Wanganui,Wanganui-Manawatu,New Zealand,NZ,Provincial capital,175.03499738624478,-39.930002934532375,7,Less than 50,000,55180
2494,Hastings,Hawke's Bay,New Zealand,NZ,Provincial capital,176.8410003206133,-39.63999596623163,6,50,000 to 99,999,0
2493,Kingston,Norfolk I.,Norfolk I.,NF,National and provincial capital,167.9629502857811,-29.06377198378607,7,Less than 50,000,55500
2492,Wabag,Enga,Papua New Guinea,PP,Provincial capital,143.7180034401093,-5.490000050880353,7,Less than 50,000,0
2491,Madang,Madang,Papua New Guinea,PP,Provincial capital,145.7829724144644,-5.23125906867008,7,Less than 50,000,53250
2490,Wewak,East Sepik,Papua New Guinea,PP,Provincial capital,143.62000236238154,-3.564998975672475,7,Less than 50,000,0
2489,Vanimo,West Sepik,Papua New Guinea,PP,Provincial capital,141.30399633207972,-2.6900009842404935,7,Less than 50,000,0
2488,Jayapura,Irian Jaya,Indonesia,ID,Provincial capital,140.71898743671326,-2.5419960402240287,5,100,000 to 249,999,0
2487,Kupang,Nusa Tenggara Timur,Indonesia,ID,Provincial capital,123.58728931648535,-10.172465927841708,4,250,000 to 499,999,51410
2486,Denpasar,Bali,Indonesia,ID,Provincial capital,115.21727130172346,-8.706689949721419,4,250,000 to 499,999,0
2485,Mataram,Nusa Tenggara Barat,Indonesia,ID,Provincial capital,116.13699936071383,-8.589996003350723,4,250,000 to 499,999,0
2484,Surabaja,Jawa Timur,Indonesia,ID,Other,112.68437444465118,-7.399998046591184,2,1,000,000 to 4,999,999,51130
2483,Bandjermasin,Kalimantan Selatan,Indonesia,ID,Provincial capital,114.58899935143617,-3.3280020498107783,3,500,000 to 999,999,51890
2482,Palangkaraya,Kalimantan Tengah,Indonesia,ID,Provincial capital,113.93334035202666,-2.266667968932219,7,Less than 50,000,0
2481,Balikpapan,Kalimantan Timur,Indonesia,ID,Other,116.85999630873053,-1.209996059180159,4,250,000 to 499,999,51840
2480,Samarinda,Kalimantan Timur,Indonesia,ID,Provincial capital,117.1539993764301,-0.502002025176848,4,250,000 to 499,999,51820
2479,Birdum,Northern Territory,Australia,AS,Other,133.21999828782097,-15.749999985372336,7,Less than 50,000,0
2478,Darwin,Northern Territory,Australia,AS,Provincial capital,130.83200140487034,-12.412998005439041,6,50,000 to 99,999,54670
2477,Dili,Timor Leste,Timor Leste,TT,National capital,125.5809963937098,-8.570996989938493,5,100,000 to 249,999,51390
2476,Makassar,Sulawesi Selatan,Indonesia,ID,Other,119.72278831528169,-5.190425975798752,2,1,000,000 to 4,999,999,52320
2475,Kendari,Sulawesi Tenggara,Indonesia,ID,Provincial capital,122.5883614402069,-3.955436983750527,7,Less than 50,000,52240
2474,Ambon,Maluku,Indonesia,ID,Provincial capital,128.19999638439126,-3.716667065965734,4,250,000 to 499,999,52720
2473,Palu,Sulawesi Tengah,Indonesia,ID,Provincial capital,119.85100240657735,-0.8990009638853755,4,250,000 to 499,999,0
2472,Jakarta,Jakarta Raya,Indonesia,ID,National and provincial capital,106.80000339972676,-6.1666650495191035,1,5,000,000 and greater,50970
2471,Tanjungkarang-Telukbetung,Lampung,Indonesia,ID,Provincial capital,105.25400144014858,-5.408999936865415,3,500,000 to 999,999,0
2470,Bengkulu,Bengkulu,Indonesia,ID,Provincial capital,102.2666763608137,-3.7999980173184484,4,250,000 to 499,999,50440
2469,Palembang,Sumatera Selatan,Indonesia,ID,Provincial capital,104.7570033740129,-2.9909970604043217,2,1,000,000 to 4,999,999,50330
2468,Jambi,Jambi,Indonesia,ID,Provincial capital,103.61667633042008,-1.6000019894244242,4,250,000 to 499,999,0
2467,Pontianak,Kalimantan Barat,Indonesia,ID,Provincial capital,109.33900230124297,-0.02300394760367615,4,250,000 to 499,999,51941
2466,The Settlement,Christmas I.,Christmas I.,KT,National and provincial capital,105.71670037020696,-10.416698957662849,7,Less than 50,000,50910
2465,West Island,Cocos Is.,Cocos Is.,CK,National and provincial capital,96.8260773834108,-12.157532937743374,7,Less than 50,000,0
2464,Fremantle,Western Australia,Australia,AS,Other,115.9345713092936,-32.044166938447134,7,Less than 50,000,54520
2463,Perth,Western Australia,Australia,AS,Provincial capital,115.85300441374639,-31.956003036831785,2,1,000,000 to 4,999,999,0
2462,Alice Springs,Northern Territory,Australia,AS,Other,133.9299903715237,-23.630004006345267,7,Less than 50,000,0
2461,Yogyakarta,Yogyakarta,Indonesia,ID,Provincial capital,110.36899841063932,-7.796996985299687,3,500,000 to 999,999,0
2460,Semarang,Jawa Tengah,Indonesia,ID,Provincial capital,110.42600438699353,-6.97100400079038,2,1,000,000 to 4,999,999,51040
2459,Bandung,Jawa Barat,Indonesia,ID,Provincial capital,107.60699737082389,-6.91199997473675,2,1,000,000 to 4,999,999,0
2458,Padang,Sumatera Barat,Indonesia,ID,Provincial capital,100.35199832174122,-0.9539999544225819,3,500,000 to 999,999,50450
2457,Fianarantsoa,Fianarantsoa,Madagascar,MA,Provincial capital,47.0780013377846,-21.459995934242883,5,100,000 to 249,999,0
2456,Port Louis,Mauritius,Mauritius,MP,National capital,57.49599629930642,-20.165004056775008,5,100,000 to 249,999,47720
2455,Antananarivo,Antananarivo,Madagascar,MA,National and provincial capital,47.52800138281461,-18.90800093904663,2,1,000,000 to 4,999,999,0
2454,Toamasina,Toamasina,Madagascar,MA,Provincial capital,49.383297431156194,-18.1666980231818,5,100,000 to 249,999,0
2453,Mahajanga,Mahajanga,Madagascar,MA,Provincial capital,46.30764644170375,-15.713928022855644,5,100,000 to 249,999,47400
2452,Antsiranana,Antsiranana,Madagascar,MA,Provincial capital,49.30958736877352,-12.263382078001706,6,50,000 to 99,999,47630
2451,Victoria,Seychelles,Seychelles,SE,National capital,55.445004405762226,-4.616999943664108,7,Less than 50,000,47220
2450,Saint-Denis,Reunion,Reunion,RE,National and provincial capital,55.449999364527095,-20.86669796239453,5,100,000 to 249,999,47680
2449,Mamoutzou,Mayotte,Mayotte,MF,National and provincial capital,45.283302426682326,-12.783302940589403,6,50,000 to 99,999,0
2448,Pietermaritzburg (Ulundi),KwaZulu/Natal,South Africa,SF,Provincial capital,30.383001355104682,-29.60099995485582,3,500,000 to 999,999,0
2447,Qacha's Nek,Qacha's Nek,Lesotho,LT,Provincial capital,28.70199931582403,-30.117266938251635,7,Less than 50,000,0
2446,Durban,KwaZulu/Natal,South Africa,SF,Other,30.942189338698082,-29.836376961179067,2,1,000,000 to 4,999,999,46850
2445,Mokhotlong,Mokhotlong,Lesotho,LT,Provincial capital,29.078001356904597,-29.291004049894365,7,Less than 50,000,0
2444,Butha-Buthe,Butha-Buthe,Lesotho,LT,Provincial capital,28.250001386578276,-28.749995935600893,7,Less than 50,000,0
2443,Richards Bay,KwaZulu/Natal,South Africa,SF,Other,32.08627832231218,-28.783961953072478,4,250,000 to 499,999,46855
2442,Pietersburg (Polokwane),Northern,South Africa,SF,Provincial capital,29.449998362468765,-23.892003030834992,5,100,000 to 249,999,0
2441,Pretoria,Gauteng,South Africa,SF,National capital,28.217997343368406,-25.730999931661824,2,1,000,000 to 4,999,999,0
2440,Xai-Xai,Gaza,Mozambique,MZ,Provincial capital,33.64000241135642,-25.0409969501034,5,100,000 to 249,999,0
2439,Moyeni,Quthing,Lesotho,LT,Provincial capital,27.716004318467863,-30.41099993661964,7,Less than 50,000,0
2438,Mohales Hoek,Mohale's Hoek,Lesotho,LT,Provincial capital,27.479997315854632,-30.158999931260883,7,Less than 50,000,0
2437,Mafeteng,Mafeteng,Lesotho,LT,Provincial capital,27.25200038427417,-29.83100403773693,6,50,000 to 99,999,0
2436,Maseru,Maseru,Lesotho,LT,National and provincial capital,27.49200332080258,-29.307996077489584,5,100,000 to 249,999,0
2435,Teyateyaneng,Berea,Lesotho,LT,Provincial capital,27.753003320442588,-29.15299795952522,7,Less than 50,000,0
2434,Bloemfontein,Free State,South Africa,SF,Provincial capital,26.225001349426922,-29.117997007249897,4,250,000 to 499,999,0
2433,Hlotse,Leribe,Lesotho,LT,Provincial capital,28.05599744630584,-28.878003006839084,7,Less than 50,000,0
2432,Kimberley,Northern Cape,South Africa,SF,Provincial capital,24.830001408414265,-28.659995992788343,5,100,000 to 249,999,0
2431,MMabatho (Mafikeng),North West,South Africa,SF,Provincial capital,25.6519982935248,-25.858998066782444,6,50,000 to 99,999,0
2430,Bisho,Eastern Cape,South Africa,SF,Provincial capital,27.623142335772034,-32.7614310360633,5,100,000 to 249,999,0
2429,East London,Eastern Cape,South Africa,SF,Other,27.900000303491765,-33.02999992730105,7,Less than 50,000,46830
2428,Johannesburg,Gauteng,South Africa,SF,Provincial capital,28.004310445720904,-26.178957080920814,2,1,000,000 to 4,999,999,0
2427,Lobatse,South-East,Botswana,BC,Provincial capital,25.67700039215282,-25.227998945793992,7,Less than 50,000,0
2426,Kanye,Southern,Botswana,BC,Provincial capital,25.343001413413045,-24.977996990134624,7,Less than 50,000,0
2425,Gaborone,South-East,Botswana,BC,National capital,25.950798401533007,-24.63992992660437,5,100,000 to 249,999,0
2424,Molepolole,Kweneng,Botswana,BC,Provincial capital,25.520004389972687,-24.40199702516706,6,50,000 to 99,999,0
2423,Mochudi,Kgatleng,Botswana,BC,Provincial capital,26.152002370327182,-24.37700402814031,7,Less than 50,000,0
2422,Nelspruit,Mpumalanga,South Africa,SF,Provincial capital,30.985002443549973,-25.466003998106647,5,100,000 to 249,999,0
2421,Port Elizabeth,Eastern Cape,South Africa,SF,Other,25.48430129053202,-33.88157105905558,3,500,000 to 999,999,46820
2420,Hlatikulu,Shiselweni,Swaziland,WZ,Provincial capital,31.416696355248206,-26.999999952736886,7,Less than 50,000,0
2419,Manzini,Manzini,Swaziland,WZ,Provincial capital,31.388004301990634,-26.495001082653314,5,100,000 to 249,999,0
2418,Siteki,Lubombo,Swaziland,WZ,Provincial capital,31.95199842749392,-26.454996070011916,7,Less than 50,000,0
2417,Mbabane,Hhohho,Swaziland,WZ,National capital,31.191300330337096,-26.30338192739148,6,50,000 to 99,999,0
2416,Maputo,Maputo,Mozambique,MZ,National and provincial capital,32.57399738871743,-25.962003039392613,2,1,000,000 to 4,999,999,46870
2415,Piggs Peak,Hhohho,Swaziland,WZ,Provincial capital,31.247001302556015,-25.961004014542908,7,Less than 50,000,0
2414,Beira,Sofala,Mozambique,MZ,Provincial capital,34.83600328784809,-19.827000042518847,3,500,000 to 999,999,46890
2413,Quelimane,Zambezia,Mozambique,MZ,Provincial capital,36.883998437810504,-17.877996059016308,5,100,000 to 249,999,46910
2412,Blantyre,Southern,Malawi,MI,Provincial capital,34.99399831487793,-15.793002072562876,3,500,000 to 999,999,0
2411,Nampula,Nampula,Mozambique,MZ,Provincial capital,39.257001342865294,-15.114995994351167,4,250,000 to 499,999,0
2410,Lilongwe,Central,Malawi,MI,National and provincial capital,33.774003300725525,-13.983003038795554,3,500,000 to 999,999,0
2409,Lichinga,Niassa,Mozambique,MZ,Provincial capital,35.233299435208295,-13.300002001818992,5,100,000 to 249,999,0
2408,Mzuzu,Northern,Malawi,MI,Provincial capital,34.02299729541758,-11.465001034907303,7,Less than 50,000,0
2407,Singida,Singida,Tanzania,TZ,Provincial capital,34.743996359218556,-4.816998033034761,6,50,000 to 99,999,0
2406,Musoma,Mara,Tanzania,TZ,Provincial capital,33.803001333268696,-1.4959979919645432,5,100,000 to 249,999,0
2405,Nairobi,Nairobi Area,Kenya,KE,National and provincial capital,36.803997348645254,-1.2699989445998323,2,1,000,000 to 4,999,999,0
2404,Embu,Eastern,Kenya,KE,Provincial capital,37.44900035879738,-0.5239979476544948,7,Less than 50,000,0
2403,Nyeri,Central,Kenya,KE,Provincial capital,36.951003433295654,-0.41699704112916003,6,50,000 to 99,999,0
2402,Nakuru,Rift Valley,Kenya,KE,Provincial capital,36.06900333179817,-0.27999907721094597,4,250,000 to 499,999,0
2401,Kisumu,Nyanza,Kenya,KE,Provincial capital,34.74700236988525,-0.09500406733736506,5,100,000 to 249,999,0
2400,Songea,Ruvuma,Tanzania,TZ,Provincial capital,35.65099839386042,-10.682001035987247,5,100,000 to 249,999,0
2399,Iringa,Iringa,Tanzania,TZ,Provincial capital,35.69200243135154,-7.776998947037776,5,100,000 to 249,999,0
2398,Morogoro,Morogoro,Tanzania,TZ,Provincial capital,37.66100428763232,-6.82200003192421,4,250,000 to 499,999,0
2397,Dar es Salaam,Dar es Salaam,Tanzania,TZ,National and provincial capital,39.253347298189766,-6.8173560640001885,2,1,000,000 to 4,999,999,47010
2396,Kibaha,Pwani,Tanzania,TZ,Provincial capital,38.91670240122542,-6.766703998218972,7,Less than 50,000,0
2395,Dodoma,Dodoma,Tanzania,TZ,Provincial capital,35.738001427607514,-6.174998972072663,5,100,000 to 249,999,0
2394,Zanzibar,Zanzibar Urban/West,Tanzania,TZ,Provincial capital,39.2030013771778,-6.165998977791401,4,250,000 to 499,999,47050
2393,Koani,Zanzibar Central/South,Tanzania,TZ,Provincial capital,39.28329934402737,-6.133302054501085,7,Less than 50,000,0
2392,Mkokotoni,Zanzibar North,Tanzania,TZ,Provincial capital,39.25999841741441,-5.8789980201573355,7,Less than 50,000,0
2391,Mtwara,Mtwara,Tanzania,TZ,Provincial capital,40.184001415769075,-10.275003078147764,6,50,000 to 99,999,46975
2390,Lindi,Lindi,Tanzania,TZ,Provincial capital,39.7070013878953,-10.001997073559803,7,Less than 50,000,46980
2389,Mkoani,Pemba South,Tanzania,TZ,Provincial capital,39.6666993320859,-5.349996076295446,7,Less than 50,000,0
2388,Tanga,Tanga,Tanzania,TZ,Provincial capital,39.0989973797179,-5.068998038393529,5,100,000 to 249,999,47030
2387,Wete,Pemba North,Tanzania,TZ,Provincial capital,39.70522839597223,-5.058036069850526,7,Less than 50,000,47025
2386,Mombasa,Coast,Kenya,KE,Provincial capital,39.65489141107784,-4.050945050154661,3,500,000 to 999,999,47100
2385,Arusha,Arusha,Tanzania,TZ,Provincial capital,36.67400132930888,-3.3660000766352023,4,250,000 to 499,999,0
2384,Moshi,Kilimanjaro,Tanzania,TZ,Provincial capital,37.3429983116381,-3.3389999283077767,5,100,000 to 249,999,0
2383,Kismaayo,Jubbada Hoose,Somalia,SO,Provincial capital,42.539004332261385,-0.34599594624517643,7,Less than 50,000,0
2382,Butare,Butare,Rwanda,RW,Provincial capital,29.732004361338003,-2.6000010414279537,6,50,000 to 99,999,0
2381,Kibungo,Kibungo,Rwanda,RW,Provincial capital,30.533301391988545,-2.1666959808251547,7,Less than 50,000,0
2380,Gitarama,Gitarama,Rwanda,RW,Provincial capital,29.75799638321445,-2.0760029924485055,6,50,000 to 99,999,0
2379,Kigali,Kigali,Rwanda,RW,National and provincial capital,30.0590013954959,-1.9500030725109523,3,500,000 to 999,999,0
2378,Byumba,Byumba,Rwanda,RW,Provincial capital,30.062997329411047,-1.580003951162526,6,50,000 to 99,999,0
2377,Cyangugu,Cyangugu,Rwanda,RW,Provincial capital,28.88979331630685,-2.496069029359739,6,50,000 to 99,999,0
2376,Gikongoro,Gikongoro,Rwanda,RW,Provincial capital,29.566701410440718,-2.483297993455982,7,Less than 50,000,0
2375,Kibuye,Kibuye,Rwanda,RW,Provincial capital,29.349999400525263,-2.0500020344544474,7,Less than 50,000,0
2374,Gisenyi,Gisenyi,Rwanda,RW,Provincial capital,29.257002383163638,-1.6949970564854906,6,50,000 to 99,999,0
2373,Ruhengeri,Ruhengeri,Rwanda,RW,Provincial capital,29.629998413577514,-1.5010020523306469,6,50,000 to 99,999,0
2372,Buluko,Kivu,Congo, DRC,CG,Provincial capital,28.528002349931086,-0.7569989396010578,7,Less than 50,000,0
2371,Mbarara,Southern,Uganda,UG,Provincial capital,30.648996313509574,-0.6059969210354899,7,Less than 50,000,0
2370,Ruyigi,Ruyigi,Burundi,BY,Provincial capital,30.243996405369476,-3.4810019525920946,7,Less than 50,000,0
2369,Gitega,Gitega,Burundi,BY,Provincial capital,29.93329835324269,-3.4333019498047084,7,Less than 50,000,0
2368,Bujumbura,Bujumbura,Burundi,BY,National and provincial capital,29.356002320257435,-3.3720029963673364,4,250,000 to 499,999,0
2367,Muramvya,Muramvya,Burundi,BY,Provincial capital,29.611998425015006,-3.2609970543256033,7,Less than 50,000,0
2366,Karusi,Karuzi,Burundi,BY,Provincial capital,30.16299629135455,-3.099996016629067,7,Less than 50,000,0
2365,Bubanza,Bubanza,Burundi,BY,Provincial capital,29.366703321070077,-3.083301032201868,7,Less than 50,000,0
2364,Ngozi,Ngozi,Burundi,BY,Provincial capital,29.825001378699625,-2.912003932206383,7,Less than 50,000,0
2363,Kayanza,Kayanza,Burundi,BY,Provincial capital,29.566701410440718,-2.899997927258427,7,Less than 50,000,0
2362,Muyinga,Muyinga,Burundi,BY,Provincial capital,30.326004314868047,-2.855996980701869,6,50,000 to 99,999,0
2361,Kigoma,Kigoma,Tanzania,TZ,Provincial capital,29.619000369596844,-4.8760020590883775,5,100,000 to 249,999,0
2360,Makamba,Makamba,Burundi,BY,Provincial capital,29.799999445555272,-4.1333039504940645,7,Less than 50,000,0
2359,Bururi,Bururi,Burundi,BY,Provincial capital,29.611998425015006,-3.951000035884004,7,Less than 50,000,0
2358,Rutana,Rutana,Burundi,BY,Provincial capital,29.99300436097801,-3.9310019976221056,7,Less than 50,000,0
2357,Cankuzo,Cankuzo,Burundi,BY,Provincial capital,30.51669643067186,-3.1667039689462615,7,Less than 50,000,0
2356,Mbuji-Mayi,Kasai-Oriental,Congo, DRC,CG,Provincial capital,23.666697289729257,-6.149997038928297,3,500,000 to 999,999,0
2355,Tabora,Tabora,Tanzania,TZ,Provincial capital,32.82599739407621,-5.01800391788902,5,100,000 to 249,999,0
2354,Shinyanga,Shinyanga,Tanzania,TZ,Provincial capital,33.42099637245597,-3.664997937615983,5,100,000 to 249,999,0
2353,Mwanza,Mwanza,Tanzania,TZ,Provincial capital,32.88899735404499,-2.5149960573802654,4,250,000 to 499,999,0
2352,Bukoba,Ziwa Magharibi,Tanzania,TZ,Provincial capital,31.80799835351019,-1.3220010260715975,6,50,000 to 99,999,0
2351,Masaka,South Buganda,Uganda,UG,Provincial capital,31.734000349560745,-0.33499806774816504,6,50,000 to 99,999,0
2350,Serowe,Central,Botswana,BC,Provincial capital,26.71100137158192,-22.38900299296367,7,Less than 50,000,0
2349,Francistown,North-East,Botswana,BC,Provincial capital,27.50000429023413,-21.170996926909396,6,50,000 to 99,999,0
2348,Maun,Ngamiland,Botswana,BC,Provincial capital,23.41800033820519,-19.99400399994753,7,Less than 50,000,0
2347,Livingstone,Southern,Zambia,ZA,Provincial capital,25.857999302627576,-17.85799802075441,5,100,000 to 249,999,0
2346,Kasane,Chobe,Botswana,BC,Provincial capital,25.083297316307092,-17.833302066895627,7,Less than 50,000,0
2345,Mongu,Western,Zambia,ZA,Provincial capital,23.131998405420802,-15.276996056897383,6,50,000 to 99,999,0
2344,Solwezi,North-Western,Zambia,ZA,Provincial capital,26.40099636501924,-12.179997013492494,7,Less than 50,000,0
2343,Lumumbashi,Shaba,Congo, DRC,CG,Other,27.5499993858889,-11.680002038291368,2,1,000,000 to 4,999,999,0
2342,Tete,Tete,Mozambique,MZ,Provincial capital,33.58700130503494,-16.164000053277334,5,100,000 to 249,999,0
2341,Lusaka,Lusaka,Zambia,ZA,National and provincial capital,28.170000297413026,-15.4299959596787,2,1,000,000 to 4,999,999,0
2340,Kabwe,Central,Zambia,ZA,Provincial capital,28.447002401399796,-14.446998036871653,5,100,000 to 249,999,0
2339,Chipata,Eastern,Zambia,ZA,Provincial capital,32.64499831811776,-13.632002930859333,6,50,000 to 99,999,0
2338,Ndola,Copperbelt,Zambia,ZA,Provincial capital,28.634004397090393,-12.968001072778652,4,250,000 to 499,999,0
2337,Mansa,Luapula,Zambia,ZA,Provincial capital,28.89099936121403,-11.2020029855679,7,Less than 50,000,0
2336,Mbeya,Mbeya,Tanzania,TZ,Provincial capital,33.43899636101847,-8.891001015632154,4,250,000 to 499,999,0
2335,Sumbawanga,Rukwa,Tanzania,TZ,Provincial capital,31.617000423904443,-7.9669980172774855,6,50,000 to 99,999,0
2334,Kasama,Northern,Zambia,ZA,Provincial capital,31.14999941516163,-10.266695963946962,6,50,000 to 99,999,0
2333,Karibib,Karibib,Namibia,WA,Provincial capital,15.852996282559815,-21.939002947933655,7,Less than 50,000,0
2332,Omaruru,Omaruru,Namibia,WA,Provincial capital,15.950997360287547,-21.436001962065824,7,Less than 50,000,0
2331,Otjiwarongo,Otjiwarongo,Namibia,WA,Provincial capital,16.647003427061776,-20.464001917755787,7,Less than 50,000,0
2330,Outjo,Outjo,Namibia,WA,Provincial capital,16.146000325409688,-20.10799808042079,7,Less than 50,000,0
2329,Namibe,Namibe,Angola,AO,Provincial capital,12.150000382278138,-15.16666495721727,6,50,000 to 99,999,46610
2328,Lubango,Huila,Angola,AO,Provincial capital,13.491999382452946,-14.919002940496926,5,100,000 to 249,999,0
2327,Huambo,Huambo,Angola,AO,Provincial capital,15.735996356903511,-12.760002013976441,5,100,000 to 249,999,0
2326,Benguela,Benguela,Angola,AO,Provincial capital,13.406004309673136,-12.57699595220102,5,100,000 to 249,999,46600
2325,Onjiva,Cunene,Angola,AO,Provincial capital,15.783300357294763,-17.049995923206353,7,Less than 50,000,0
2324,Cabinda,Cabinda,Angola,AO,Provincial capital,12.189996293318304,-5.556995944764289,6,50,000 to 99,999,46490
2323,Pointe Noire,Kouilou,Congo,CF,Other,12.058092412876706,-4.638707924575013,3,500,000 to 999,999,46470
2322,Loubomo,Niari,Congo,CF,Provincial capital,12.672000381558178,-4.194000046961522,5,100,000 to 249,999,0
2321,Madingou,Bouenza,Congo,CF,Provincial capital,13.554000317572019,-4.164002989568643,7,Less than 50,000,0
2320,Sibiti,Lekoumou,Congo,CF,Provincial capital,13.356999302750465,-3.690999061093703,7,Less than 50,000,0
2319,Djambala,Plateaux,Congo,CF,Provincial capital,14.760000378678313,-2.5430040011913237,7,Less than 50,000,0
2318,Masuku,Haut-Ogooue,Gabon,GB,Provincial capital,13.60299638837708,-1.631996931033039,7,Less than 50,000,0
2317,Kaulomoutou,Ogooue-Lolo,Gabon,GB,Provincial capital,12.503997399279797,-1.1269980609494714,7,Less than 50,000,0
2316,Owando,Cuvette,Congo,CF,Provincial capital,15.91669838969395,-0.48330005493263567,7,Less than 50,000,0
2315,Ngunza,Cuanza Sul,Angola,AO,Provincial capital,13.849002410121303,-11.208995994032149,7,Less than 50,000,0
2314,Malange,Malanje,Angola,AO,Provincial capital,16.34100329053183,-9.541998009398851,6,50,000 to 99,999,0
2313,Ndalatando,Cuanza Norte,Angola,AO,Provincial capital,14.913999306309336,-9.297998973471637,7,Less than 50,000,0
2312,Luanda,Luanda,Angola,AO,National and provincial capital,13.23500441832931,-8.811998951316601,2,1,000,000 to 4,999,999,46560
2311,Caxito,Bengo,Angola,AO,Provincial capital,13.662999439280414,-8.577998934520332,7,Less than 50,000,0
2310,Uige,Uige,Angola,AO,Provincial capital,15.14999737280499,-7.749998964194038,6,50,000 to 99,999,0
2309,Mbanza Congo,Zaire,Angola,AO,Provincial capital,14.266701368773456,-6.30000003264416,7,Less than 50,000,0
2308,Matadi,Bas-Zaire,Congo, DRC,CG,Provincial capital,13.471002319341325,-5.816996919554589,5,100,000 to 249,999,46530
2307,Kinshasa,Kinshasa,Congo, DRC,CG,National and provincial capital,15.29900134167116,-4.32099899174878,1,5,000,000 and greater,0
2306,Saurimo,Lunda Sul,Angola,AO,Provincial capital,20.39100336483457,-9.660995984754537,7,Less than 50,000,0
2305,Lucapa,Lunda Norte,Angola,AO,Provincial capital,20.734002337855575,-8.424000006889337,7,Less than 50,000,0
2304,Kahemba,Bandundu,Congo, DRC,CG,Other,18.9999993577371,-7.329995976556893,7,Less than 50,000,0
2303,Kananga,Kasai-Occidental,Congo, DRC,CG,Provincial capital,22.40299837218828,-5.892003049954984,4,250,000 to 499,999,0
2302,Kinkala,Pool,Congo,CF,Provincial capital,14.761998428377721,-4.355999944024089,7,Less than 50,000,0
2301,Brazzaville,Pool,Congo,CF,National capital,15.285141423290838,-4.2851879969623985,2,1,000,000 to 4,999,999,0
2300,Bandundu,Bandundu,Congo, DRC,CG,Provincial capital,17.38600231394159,-3.31499702001313,5,100,000 to 249,999,0
2299,Karasburg,Karasburg,Namibia,WA,Provincial capital,18.74500244331287,-28.022004028819314,7,Less than 50,000,0
2298,Keetmanshoop,Keetmanshoop,Namibia,WA,Provincial capital,18.13300233573665,-26.574002981485204,7,Less than 50,000,0
2297,Bethanien,Bethanien,Namibia,WA,Provincial capital,17.1610022914266,-26.502003027235176,7,Less than 50,000,0
2296,Tsabong,Kgalagadi,Botswana,BC,Provincial capital,22.39700438857372,-26.017002029929845,7,Less than 50,000,0
2295,Maltahohe,Maltahohe,Namibia,WA,Provincial capital,16.972002411520265,-24.839000976517024,7,Less than 50,000,0
2294,Mariental,Mariental,Namibia,WA,Provincial capital,17.958996433726128,-24.62100306406751,7,Less than 50,000,0
2293,Rehoboth,Rehoboth,Namibia,WA,Provincial capital,17.081001367745017,-23.319998999782573,7,Less than 50,000,0
2292,Windhoek,Windhoek,Namibia,WA,National and provincial capital,17.07699633222862,-22.560003049791145,4,250,000 to 499,999,0
2291,Cape Town,Western Cape,South Africa,SF,Provincial capital,18.482004393973455,-33.97899592268252,2,1,000,000 to 4,999,999,46770
2290,Luderitz,Luderitz,Namibia,WA,Provincial capital,15.155001433171092,-26.643995949918246,7,Less than 50,000,46650
2289,Walvis Bay,Swakopmund,Namibia,WA,Other,14.61709828877241,-23.1018660526673,6,50,000 to 99,999,46640
2288,Swakopmund,Swakopmund,Namibia,WA,Provincial capital,14.52799841158145,-22.67399696478073,7,Less than 50,000,0
2287,Gobabis,Gobabis,Namibia,WA,Provincial capital,18.963000355762375,-22.455000027481546,7,Less than 50,000,0
2286,Okahandja,Okahandja,Namibia,WA,Provincial capital,16.912998385466636,-21.983004059973876,7,Less than 50,000,0
2285,Ghanzi,Ghanzi,Botswana,BC,Provincial capital,21.646998356111993,-21.705002931137386,7,Less than 50,000,0
2284,Otavi,Grootfontein,Namibia,WA,Provincial capital,17.342001367385024,-19.63999804682828,7,Less than 50,000,0
2283,Tsumeb,Tsumeb,Namibia,WA,Provincial capital,17.711001298400106,-19.248003003002193,7,Less than 50,000,0
2282,Inhambane,Inhambane,Mozambique,MZ,Provincial capital,35.388000344521004,-23.87400304227249,6,50,000 to 99,999,46880
2281,Toliara,Toliara,Madagascar,MA,Provincial capital,43.66666840077986,-23.34999605717544,5,100,000 to 249,999,47460
2280,Menongue,Cuando Cubango,Angola,AO,Provincial capital,17.86670139804619,-14.799996029023623,7,Less than 50,000,0
2279,Kuito,Bie,Angola,AO,Provincial capital,16.938999343460694,-12.380004038980722,5,100,000 to 249,999,0
2278,Luena,Moxico,Angola,AO,Provincial capital,19.90500334267955,-11.790999044215496,7,Less than 50,000,0
2277,Tchibanga,Nyanga,Gabon,GB,Provincial capital,11.02699831940251,-2.856996005551574,7,Less than 50,000,0
2276,Mouila,Ngounie,Gabon,GB,Provincial capital,11.004003372075148,-1.884995961241526,7,Less than 50,000,0
2275,Port Gentil,Ogooue-Maritime,Gabon,GB,Provincial capital,8.782002320102237,-0.7209989624760444,5,100,000 to 249,999,46440
2274,Lambarene,Moyen-Ogooue,Gabon,GB,Provincial capital,10.212003378873845,-0.7059960484626346,7,Less than 50,000,0
2273,Bulawayo,Matabeleland North,Zimbabwe,ZI,Other,28.710000285255575,-20.199996072932727,3,500,000 to 999,999,0
2272,Chimoio,Manica,Mozambique,MZ,Provincial capital,33.483339362298295,-19.1333340801673,4,250,000 to 499,999,0
2271,Harare,Mashonaland East,Zimbabwe,ZI,National and provincial capital,31.020003395825288,-17.829999013060952,2,1,000,000 to 4,999,999,0
2270,Mocambique,Nampula,Mozambique,MZ,Other,40.691034410989744,-15.066134958211888,7,Less than 50,000,46930
2269,Pemba,Cabo Delgado,Mozambique,MZ,Provincial capital,40.50000040594633,-12.966659993205667,5,100,000 to 249,999,46940
2268,Moroni,Comoros,Comoros,CN,National capital,43.243002432349556,-11.700000076553264,7,Less than 50,000,47300
2267,Masvingo,Masvingo,Zimbabwe,ZI,Provincial capital,31.500000332764504,-20.999997035565578,6,50,000 to 99,999,0
2266,Gweru,Midlands,Zimbabwe,ZI,Provincial capital,29.750004349900507,-19.466703062617043,5,100,000 to 249,999,0
2265,Mutare,Manicaland,Zimbabwe,ZI,Provincial capital,32.666697362911094,-18.966698985814652,5,100,000 to 249,999,0
2264,Gifu,Chubu,Japan,JA,Provincial capital,136.76199331588978,35.409996043470045,4,250,000 to 499,999,62140
2263,Osaka,Kinki,Japan,JA,Provincial capital,135.51900335441,34.635996038831244,2,1,000,000 to 4,999,999,61550
2262,Kobe,Kinki,Japan,JA,Other,135.22121137285276,34.690149076903374,2,1,000,000 to 4,999,999,61560
2261,Kyoto,Kinki,Japan,JA,Other,135.7550014209057,35.009001005362684,2,1,000,000 to 4,999,999,0
2260,Nagoya,Chubu,Japan,JA,Provincial capital,136.92100540548816,35.154998963562164,2,1,000,000 to 4,999,999,61480
2259,Yokohama,Kanto,Japan,JA,Other,139.6199973837336,35.43699602631381,2,1,000,000 to 4,999,999,61390
2258,Kawasaki,Kanto,Japan,JA,Other,139.72721441191766,35.50457707041613,2,1,000,000 to 4,999,999,61385
2257,Tokyo,Kanto,Japan,JA,National and provincial capital,139.80900636524117,35.683002048058,1,5,000,000 and greater,61380
2256,Hagatna,Guam,Guam,GQ,National and provincial capital,144.7469914230547,13.46699706029628,7,Less than 50,000,0
2255,Saipan,Northern Mariana Is.,Northern Mariana Is.,CQ,National and provincial capital,145.73500234234544,15.149996983792695,7,Less than 50,000,0
2254,Sendai,Tohoku,Japan,JA,Provincial capital,140.89101332674326,38.25399605666648,6,50,000 to 99,999,0
2253,Aomori,Tohoku,Japan,JA,Other,140.75000139119103,40.81666507883895,4,250,000 to 499,999,61270
2252,Sapporo,Hokkaido,Japan,JA,Provincial capital,141.34599029281927,43.055001022796986,2,1,000,000 to 4,999,999,0
2251,Tarawa,Kiribati,Kiribati,KR,National capital,172.92111342807752,1.3407569811548918,7,Less than 50,000,56450
2250,Palikir,Micronesia,Micronesia,FM,National capital,158.21670628564235,6.966701959272195,7,Less than 50,000,0
2249,Majuro,Marshall Is.,Marshall Is.,RM,National capital,171.36765940836486,7.120980057836017,7,Less than 50,000,0
2248,Anadyr,Chukotskiy avtonomnyy okrug,Russia,RS,Provincial capital,177.48025244264605,64.7552700642248,7,Less than 50,000,0
2247,Palana,Koryakskiy avtonomnyy okrug,Russia,RS,Provincial capital,159.9830014160211,59.08300207284712,7,Less than 50,000,0
2246,Yuzhno-Sakhalinsk,Sakhalinskaya oblast',Russia,RS,Provincial capital,142.74999932971437,46.96000199826633,5,100,000 to 249,999,0
2245,Khabarovsk,Khabarovskiy kray,Russia,RS,Provincial capital,135.12699937446635,48.43199701777748,3,500,000 to 999,999,60830
2244,Petropavloski-Kamchatskiy,Kamchatskaya oblast',Russia,RS,Provincial capital,158.72000431467816,53.19999908133208,5,100,000 to 249,999,62600
2243,Okhotsk,Khabarovskiy kray,Russia,RS,Other,143.2474203720826,59.382746927064865,7,Less than 50,000,62540
2242,Magadan,Magadanskaya oblast',Russia,RS,Provincial capital,150.833304328409,59.63329795750496,6,50,000 to 99,999,62550
2241,Birobidzhan,Yevreyskaya avtonomnaya oblast',Russia,RS,Provincial capital,132.899994427611,48.816999053139305,6,50,000 to 99,999,0
2240,Aginskoye,Aginskiy Buryatskiy avtonomnyy okrug,Russia,RS,Provincial capital,114.53300133604924,51.16699807474918,7,Less than 50,000,0
2239,Harbin,Heilongjiang,China,CH,Provincial capital,126.62299834257048,45.755000962009724,2,1,000,000 to 4,999,999,0
2238,Baruun Urt,Suhbaatar,Mongolia,MG,Provincial capital,113.28000341932093,46.67900396036438,7,Less than 50,000,0
2237,Qiqihar,Heilongjiang,China,CH,Other,123.96496539026091,47.34400500877841,3,500,000 to 999,999,0
2236,Choybalsan,Dornod,Mongolia,MG,Provincial capital,114.50600135320552,48.06000001221331,7,Less than 50,000,0
2235,Blagoveshchensk,Amurskaya oblast',Russia,RS,Provincial capital,127.53333934100104,50.28333304215791,5,100,000 to 249,999,0
2234,Chita,Chitinskaya oblast',Russia,RS,Provincial capital,113.49900035662014,52.04500207684788,4,250,000 to 499,999,0
2233,Yakutsk,Respublika Sakha(Yakutiya),Russia,RS,Provincial capital,129.83000430316744,62.00999991879056,5,100,000 to 249,999,0
2232,Ust' Ordynskiy,Ust'-Ordynskiy Buryatskiy avt.okrug,Russia,RS,Provincial capital,104.69999739765869,52.83299703453277,7,Less than 50,000,0
2231,Mandalgovi,Dundgovi,Mongolia,MG,Provincial capital,106.26499837064907,45.76100404722553,7,Less than 50,000,0
2230,Arvayheer,Ovorhangay,Mongolia,MG,Provincial capital,102.77199941338533,46.26800096700851,7,Less than 50,000,0
2229,Tsetserleg,Arhangay,Mongolia,MG,Provincial capital,101.45799942090399,47.45799892376805,7,Less than 50,000,0
2228,Bulgan,Bulgan,Mongolia,MG,Provincial capital,103.55499941230542,48.81400197859019,7,Less than 50,000,0
2227,Ulan Ude,Respublika Buryatiya,Russia,RS,Provincial capital,107.56500341008432,51.84600301232694,4,250,000 to 499,999,0
2226,Irkutsk,Irkutskaya oblast',Russia,RS,Provincial capital,104.24799930292923,52.316999954984894,3,500,000 to 999,999,0
2225,Darhan,Darhan,Mongolia,MG,Provincial capital,106.17633040580827,49.90246197537704,6,50,000 to 99,999,0
2224,Suchboatar,Selenge,Mongolia,MG,Provincial capital,106.20000036098094,50.24999702097635,7,Less than 50,000,0
2223,Bayanhongor,Bayanhongor,Mongolia,MG,Provincial capital,100.12300236531102,46.69200005404443,7,Less than 50,000,0
2222,Uliastay,Dzavhan,Mongolia,MG,Other,97.00000236391206,47.809998056553944,7,Less than 50,000,0
2221,Hovd,Hovd,Mongolia,MG,Provincial capital,91.63600229712799,48.00500102167608,7,Less than 50,000,0
2220,Moron,Hovsgol,Mongolia,MG,Provincial capital,100.15800331758632,49.63699805403406,7,Less than 50,000,0
2219,Ulaangom,Uvs,Mongolia,MG,Provincial capital,92.06900137844517,49.98400206257147,7,Less than 50,000,0
2218,Kyzyl,Respublika Tyva,Russia,RS,Provincial capital,94.38599733199547,51.7100040732584,5,100,000 to 249,999,0
2217,Abakan,Respublika Khakasiya,Russia,RS,Provincial capital,91.44299738170528,53.71900200606301,5,100,000 to 249,999,0
2216,Krasnoyarsk,Krasnoyarskiy kray,Russia,RS,Provincial capital,92.83333531707504,56.01666599307908,3,500,000 to 999,999,0
2215,Altay,Govi-Altay,Mongolia,MG,Provincial capital,96.23934034219295,46.32736492002055,7,Less than 50,000,0
2214,Tura,Evenkiyskiy avtonomnyy okrug,Russia,RS,Provincial capital,100.28300437815787,64.33299895755668,7,Less than 50,000,0
2213,Ondorhaan,Hentiy,Mongolia,MG,Provincial capital,110.66100342863953,47.33000095413109,7,Less than 50,000,0
2212,Dzuunmod,Tov,Mongolia,MG,Provincial capital,106.94700038277594,47.71099795397649,7,Less than 50,000,0
2211,Ulaanbaatar,Ulaanbaatar,Mongolia,MG,National and provincial capital,106.91199943050061,47.928996031909655,3,500,000 to 999,999,0
2210,Chatanga,Chitinskaya oblast',Russia,RS,Other,110.75000434660237,50.32999794465796,7,Less than 50,000,0
2209,Uttyakh,Respublika Sakha(Yakutiya),Russia,RS,Other,133.40999735806068,67.58000099467746,7,Less than 50,000,0
2208,Tiksi,Respublika Sakha(Yakutiya),Russia,RS,Other,128.75000432748234,71.70000297353081,7,Less than 50,000,62670
2207,Bandar Seri Begawan,Brunei,Brunei,BX,National capital,114.96699944221616,4.932998971007565,6,50,000 to 99,999,51630
2206,Kota Kinabalu,Sabah,Malaysia,MY,Provincial capital,116.08758031367618,5.9672430459318395,4,250,000 to 499,999,51690
2205,Manila,National Capital Region,Philippines,RP,National and provincial capital,120.96694841171464,14.616702062847652,1,5,000,000 and greater,58370
2204,Quezon City,National Capital Region,Philippines,RP,Other,121.03334128314495,14.649993072473992,7,Less than 50,000,0
2203,Macau,Macau,China,CH,Other,113.5451702974959,22.199210979947647,3,500,000 to 999,999,57810
2202,Hong Kong,Hong Kong,China,CH,Other,114.17699733323062,22.27400098868933,1,5,000,000 and greater,57840
2201,Kowloon,Hong Kong,China,CH,Other,114.230115436499,22.379904076620512,7,Less than 50,000,0
2200,Naha,Okinawa,Japan,JA,Provincial capital,127.69200043975857,26.205002922152705,4,250,000 to 499,999,62500
2199,Nagasaki,Kyushu,Japan,JA,Other,129.8660044457761,32.76500403091213,4,250,000 to 499,999,62360
2198,Cheju,Cheju-do,South Korea,KS,Provincial capital,126.53334028899755,33.50819693564702,4,250,000 to 499,999,60350
2197,Fukuoka,Kyushu,Japan,JA,Provincial capital,130.401990296501,33.579998971440794,2,1,000,000 to 4,999,999,0
2196,Kita Kyushu,Kyushu,Japan,JA,Other,130.797450402664,33.6818609484179,3,500,000 to 999,999,0
2195,Sin-Ni,P'yongan-namdo,North Korea,KN,Provincial capital,125.46399630256988,39.48800406158383,7,Less than 50,000,0
2194,Hamhung,Hamgyong-namdo,North Korea,KN,Provincial capital,127.5579993849058,39.91400103283551,3,500,000 to 999,999,0
2193,Sinuiju,P'yongan-bukto,North Korea,KN,Provincial capital,124.40199631544729,40.09599896816001,4,250,000 to 499,999,0
2192,Kanggye,Chagang-do,North Korea,KN,Provincial capital,126.59599835972674,40.968999075376246,5,100,000 to 249,999,0
2191,Hyesan,Yanggang-do,North Korea,KN,Provincial capital,128.16879328209123,41.3898119400408,6,50,000 to 99,999,0
2190,Fushun,Liaoning,China,CH,Provincial capital,123.90599743964495,41.858999980821636,2,1,000,000 to 4,999,999,0
2189,Jilin,Jilin,China,CH,Other,126.56706337645763,43.85021404672247,2,1,000,000 to 4,999,999,0
2188,Changchun,Jilin,China,CH,Provincial capital,125.31300338560553,43.881002943423915,2,1,000,000 to 4,999,999,0
2187,Seoul,Seoul-jikhalsi,South Korea,KS,National capital and provincial capital enclave,126.93524432884405,37.542357079588854,1,5,000,000 and greater,0
2186,Ch'ungju,Ch'ungch'ong-bukto,South Korea,KS,Provincial capital,127.49799633400247,36.63500405410612,3,500,000 to 999,999,0
2185,Inch`on,Inch'on-jikhalsi,South Korea,KS,Other,126.63342033793398,37.48624206725497,2,1,000,000 to 4,999,999,60320
2184,Ch'unch'on,Kangwon-do,South Korea,KS,Provincial capital,127.72800041688359,37.859003938291266,5,100,000 to 249,999,0
2183,Kaesong,Kaesong-si,North Korea,KN,Provincial capital,126.56600130233389,37.96900191936572,4,250,000 to 499,999,0
2182,Haeju,Hwanghae-namdo,North Korea,KN,Provincial capital,125.71499728307894,38.040003014249706,5,100,000 to 249,999,60310
2181,Sariwon,Hwanghae-bukto,North Korea,KN,Provincial capital,125.76200440578586,38.50700402299253,5,100,000 to 249,999,0
2180,P'yongyang,P'yongyang-si,North Korea,KN,National and provincial capital,125.75700034541975,39.02900402227259,2,1,000,000 to 4,999,999,0
2179,Wonsan,Kangwon-do,North Korea,KN,Provincial capital,127.46099733202776,39.150000047327666,4,250,000 to 499,999,60440
2178,Taegu,Taegu-jikhalsi,South Korea,KS,Provincial capital enclave,128.59100133948525,35.86400095853277,2,1,000,000 to 4,999,999,0
2177,Kwangju,Kwangju-jikhalsi,South Korea,KS,Provincial capital enclave,126.90800141598882,35.15300107934643,2,1,000,000 to 4,999,999,0
2176,Pusan,Pusan-jikhalsi,South Korea,KS,Provincial capital enclave,129.05498740144375,35.15799603811127,2,1,000,000 to 4,999,999,60390
2175,Chonju,Cholla-bukto,South Korea,KS,Provincial capital,127.1333252900246,35.81666104818749,3,500,000 to 999,999,0
2174,Taejon,Ch'ungch'ong-namdo,South Korea,KS,Provincial capital,127.43399734918401,36.32400002269375,2,1,000,000 to 4,999,999,0
2173,Ch'ongjin,Hamgyong-bukto,North Korea,KN,Provincial capital,129.78399637079386,41.784002952022526,4,250,000 to 499,999,60500
2172,Vladivostok,Primorskiy kray,Russia,RS,Provincial capital,131.96043944046218,43.129998051596125,3,500,000 to 999,999,60610
2171,Zhengzhou,Henan,China,CH,Other,113.64178528409545,34.75768494396679,2,1,000,000 to 4,999,999,0
2170,Jinan,Shandong,China,CH,Provincial capital,116.9669973807395,36.65600095173408,2,1,000,000 to 4,999,999,0
2169,Taiyuan,Shanxi,China,CH,Provincial capital,112.55200241093812,37.8929969295993,2,1,000,000 to 4,999,999,0
2168,Shijiazhuang,Hebei,China,CH,Other,114.55971337732629,38.07709203933495,2,1,000,000 to 4,999,999,0
2167,Tianjin,Tianjin,China,CH,Provincial capital,117.18500439479024,39.128003959366346,2,1,000,000 to 4,999,999,60195
2166,Tangshan,Hebei,China,CH,Other,118.18020640648514,39.615444020322435,2,1,000,000 to 4,999,999,0
2165,Beijing,Beijing,China,CH,National and provincial capital,116.38803641666053,39.90618904574261,1,5,000,000 and greater,0
2164,Anshan,Liaoning,China,CH,Other,122.97700841864301,41.11524906518844,2,1,000,000 to 4,999,999,0
2163,Shenyang,Liaoning,China,CH,Other,123.38305236318807,41.802164949087235,2,1,000,000 to 4,999,999,0
2162,Guangzhou,Guangdong,China,CH,Other,113.29361130608854,23.096187021622153,2,1,000,000 to 4,999,999,57830
2161,Changsha,Hunan,China,CH,Provincial capital,113.00000440626874,28.099998003850125,2,1,000,000 to 4,999,999,60080
2160,Nanchang,Jiangxi,China,CH,Provincial capital,115.88900439087142,28.671003010052836,2,1,000,000 to 4,999,999,0
2159,Hangzhou,Zhejiang,China,CH,Provincial capital,120.1650033470552,30.252996010638462,2,1,000,000 to 4,999,999,0
2158,Wuhan,Hubei,China,CH,Provincial capital,114.27900328099108,30.573000036332086,2,1,000,000 to 4,999,999,60060
2157,Shanghai,Shanghai,China,CH,Provincial capital,121.47300041980445,31.247999938393427,1,5,000,000 and greater,59970
2156,Hefei,Anhui,China,CH,Provincial capital,117.27600336245249,31.86099907081937,2,1,000,000 to 4,999,999,0
2155,Nanjing,Jiangsu,China,CH,Provincial capital,118.76900438119291,32.048001066509975,2,1,000,000 to 4,999,999,60000
2154,Kaoshsiung,Taiwan,China,CH,Other,120.28605331978319,22.608018005147926,7,Less than 50,000,57920
2153,T'ainan,Taiwan,China,CH,Other,120.20968840305832,23.015979077883078,3,500,000 to 999,999,0
2152,T'aichung,Taiwan,China,CH,Other,120.67028138807163,24.143642980917896,2,1,000,000 to 4,999,999,57955
2151,Taipei,Taiwan,China,CH,Provincial capital,121.5067233417809,25.035093026765583,1,5,000,000 and greater,0
2150,Fuzhou,Fujian,China,CH,Provincial capital,119.30400030866932,26.071002032783603,2,1,000,000 to 4,999,999,59860
2149,Qingdao,Shandong,China,CH,Other,120.43413041467498,36.148355997942254,2,1,000,000 to 4,999,999,0
2148,Dalian,Liaoning,China,CH,Other,121.59819939883211,39.03172192588885,2,1,000,000 to 4,999,999,60250
2147,Lao Cai,Lao Cai,Vietnam,VM,Provincial capital,103.95000030131455,22.500000036054022,7,Less than 50,000,0
2146,Cao Bang,Cao Bang,Vietnam,VM,Provincial capital,106.26800438131576,22.66399798281602,7,Less than 50,000,0
2145,Ha Giang,Ha Giang,Vietnam,VM,Provincial capital,104.93334044432848,22.83333294306609,7,Less than 50,000,0
2144,Nanning,Guangxi,China,CH,Provincial capital,108.2960013275326,22.838004050310197,3,500,000 to 999,999,0
2143,Kunming,Yunnan,China,CH,Provincial capital,102.70199734335108,25.050996006400588,2,1,000,000 to 4,999,999,0
2142,Guiyang,Guizhou,China,CH,Provincial capital,106.70000443778329,26.57199603283441,2,1,000,000 to 4,999,999,0
2141,Chongqing,Sichuan,China,CH,Other,106.5226953164544,29.544102076497193,2,1,000,000 to 4,999,999,0
2140,Chengdu,Sichuan,China,CH,Provincial capital,104.07099632636962,30.670001923726453,2,1,000,000 to 4,999,999,0
2139,Baotou,Nei Mongol,China,CH,Other,109.80800135968516,40.659003004931165,2,1,000,000 to 4,999,999,0
2138,Xi'an,Shaanxi,China,CH,Other,108.8833594289229,34.26570003979848,2,1,000,000 to 4,999,999,0
2137,Luoyang,Henan,China,CH,Other,112.36123830974262,34.67134798194738,5,100,000 to 249,999,0
2136,Lanzhou,Gansu,China,CH,Provincial capital,103.59999938371166,36.1130040548261,2,1,000,000 to 4,999,999,0
2135,Xining,Qinghai,China,CH,Provincial capital,101.76499841679995,36.6450030732371,3,500,000 to 999,999,0
2134,Yinchuan,Ningxia,China,CH,Provincial capital,106.26300032094964,38.467998035200814,4,250,000 to 499,999,0
2133,Huhot,Nei Mongol,China,CH,Provincial capital,111.6489963102114,40.814000957411885,3,500,000 to 999,999,0
2132,Saynshand,Dornogovi,Mongolia,MG,Provincial capital,110.11699840528055,44.88499792934257,7,Less than 50,000,0
2131,Dalandzadgad,Omnogovi,Mongolia,MG,Provincial capital,104.49999930828804,43.45000207728976,7,Less than 50,000,0
2130,Barisal,Barisal,Bangladesh,BG,Provincial capital,90.37400438611841,22.703003970607725,5,100,000 to 249,999,0
2129,Dhaka,Dhaka,Bangladesh,BG,National and provincial capital,90.40714232336008,23.709914944082563,1,5,000,000 and greater,0
2128,Agartala,Tripura,India,IN,Provincial capital,91.2666963868273,23.81670005991647,5,100,000 to 249,999,0
2127,Shillong,Meghalaya,India,IN,Provincial capital,91.88333136072632,25.566659967342815,5,100,000 to 249,999,0
2126,Kohima,Nagaland,India,IN,Provincial capital,94.11599733807421,25.668000008859256,6,50,000 to 99,999,0
2125,Dispur,Assam,India,IN,Provincial capital,91.78329632334513,26.133300011070656,7,Less than 50,000,0
2124,Itanagar,Arunachal Pradesh,India,IN,Provincial capital,93.5499963922376,27.150002983618986,7,Less than 50,000,0
2123,Aizawl,Mizoram,India,IN,Provincial capital,92.73330044517755,23.666697066200623,4,250,000 to 499,999,0
2122,Haka,Chin State,Myanmar,BM,Provincial capital,93.61670434455479,22.65000302976989,7,Less than 50,000,0
2121,Imphal,Manipur,India,IN,Provincial capital,93.94100134733159,24.787997957061172,5,100,000 to 249,999,0
2120,Myitkyina,Kachin State,Myanmar,BM,Provincial capital,97.38800130833934,25.379001001525793,6,50,000 to 99,999,0
2119,Lhasa,Xizang,China,CH,Provincial capital,91.1320022864105,29.651004023794417,5,100,000 to 249,999,0
2118,Bac Lieu,Minh Hai,Vietnam,VM,Provincial capital,105.73332336924253,9.283337985864051,5,100,000 to 249,999,0
2117,Soc Trang,Soc Trang,Vietnam,VM,Provincial capital,105.96666641591233,9.600003047768979,5,100,000 to 249,999,0
2116,Tra Vinh,Tra Vinh,Vietnam,VM,Provincial capital,106.33400141583363,9.93400202650873,6,50,000 to 99,999,0
2115,Can Tho,Can Tho,Vietnam,VM,Provincial capital,105.78400240886016,10.03200293875283,4,250,000 to 499,999,0
2114,Truc Giang,Ben Tre,Vietnam,VM,Provincial capital,106.37499635172352,10.23499793718891,6,50,000 to 99,999,0
2113,Vinh Long,Vinh Long,Vietnam,VM,Provincial capital,105.9640022944852,10.256003936418116,5,100,000 to 249,999,0
2112,My Tho,Tien Giang,Vietnam,VM,Provincial capital,106.36700431840958,10.353996078028285,5,100,000 to 249,999,0
2111,Cao Lanh,Dong Thap,Vietnam,VM,Provincial capital,105.63599729936001,10.467000069769428,7,Less than 50,000,0
2110,Tan An,Long An,Vietnam,VM,Provincial capital,106.41300331466554,10.530999054587923,6,50,000 to 99,999,0
2109,Rach Gia,Kien Giang,Vietnam,VM,Provincial capital,105.08499943302049,10.007001005608462,5,100,000 to 249,999,0
2108,Long Xuyen,An Giang,Vietnam,VM,Provincial capital,105.43799742517243,10.382004021839343,5,100,000 to 249,999,0
2107,Kampot,Kampot,Cambodia,CB,Provincial capital,104.18200243389502,10.60599591790339,7,Less than 50,000,57500
2106,Ho Chi Minh City,Ho Chi Minh,Vietnam,VM,Other,106.66245636102784,10.759184968507014,2,1,000,000 to 4,999,999,0
2105,Bien Hoa,Dong Nai,Vietnam,VM,Provincial capital,106.8166623087163,10.950003017375337,4,250,000 to 499,999,0
2104,Thu Dau Mot,Song Be,Vietnam,VM,Provincial capital,106.65274528346359,10.969074016179247,7,Less than 50,000,0
2103,Takev,Takev,Cambodia,CB,Provincial capital,104.78330137517494,10.98330296311924,7,Less than 50,000,0
2102,Svay Rieng,Svay Rieng,Cambodia,CB,Provincial capital,105.80100337257298,11.0799990367117,7,Less than 50,000,0
2101,Kota Baharu,Kelantan,Malaysia,MY,Provincial capital,102.24000039497437,6.118001969002239,4,250,000 to 499,999,0
2100,Narathiwat,Narathiwat,Thailand,TH,Provincial capital,101.82500130221965,6.427998039447343,7,Less than 50,000,57432
2099,Yala,Yala,Thailand,TH,Provincial capital,101.28899741377595,6.55000202546975,6,50,000 to 99,999,0
2098,Pattani,Pattani,Thailand,TH,Provincial capital,101.25000036210182,6.864002965947602,7,Less than 50,000,0
2097,Singapore,Singapore,Singapore,SN,National capital,103.83179433075101,1.2688559861329758,2,1,000,000 to 4,999,999,50000
2096,Pekanbaru,Riau,Indonesia,ID,Provincial capital,101.43299732227594,0.5509979676644772,7,Less than 50,000,0
2095,Johor Baharu,Johor,Malaysia,MY,Provincial capital,103.76000139655847,1.5000030646471605,3,500,000 to 999,999,0
2094,Melaka,Melaka,Malaysia,MY,Provincial capital,102.25500330898778,2.19999596373529,5,100,000 to 249,999,49970
2093,Seremban,Negeri Sembilan,Malaysia,MY,Provincial capital,101.95000236279112,2.708001009969213,4,250,000 to 499,999,0
2092,Kuching,Sarawak,Malaysia,MY,Provincial capital,110.34399631201134,1.5489989699685833,3,500,000 to 999,999,51560
2091,Shah Alam,Selangor,Malaysia,MY,Provincial capital,101.54999741341592,3.066695942567746,4,250,000 to 499,999,0
2090,Kuala Lumpur,Kuala Lumpur,Malaysia,MY,National and provincial capital,101.70800137656337,3.1499999200840167,2,1,000,000 to 4,999,999,0
2089,Kuala Lipis,Pahang,Malaysia,MY,Provincial capital,102.0420003553031,4.184001064996773,7,Less than 50,000,0
2088,Kuala Terengganu,Terengganu,Malaysia,MY,Provincial capital,103.1409993444004,5.325002950951252,4,250,000 to 499,999,57420
2087,Phan Thiet,Binh Thuan,Vietnam,VM,Provincial capital,108.10400437307717,10.920996048714587,5,100,000 to 249,999,0
2086,Kuantan New Port,Pahang,Malaysia,MY,Other,103.33330244362507,3.7999980544846674,4,250,000 to 499,999,57410
2085,Kemaman Harbor,Terengganu,Malaysia,MY,Other,103.46670031054059,4.249997934031003,7,Less than 50,000,57416
2084,Da Lat,Lam Dong,Vietnam,VM,Provincial capital,108.44199928573207,11.94499800901275,5,100,000 to 249,999,0
2083,Nha Trang,Khanh Hoa,Vietnam,VM,Provincial capital,109.20300336217444,12.242997010627475,4,250,000 to 499,999,57620
2082,Senmonorom,Mondol Kiri,Cambodia,CB,Provincial capital,107.1999994129844,12.449997044579993,7,Less than 50,000,0
2081,Buon Me Thuot,Dac Lac,Vietnam,VM,Provincial capital,108.05000440738965,12.666662979057763,5,100,000 to 249,999,0
2080,Tuy Hoa,Phu Yen,Vietnam,VM,Provincial capital,109.315998417798,13.082003961052058,6,50,000 to 99,999,0
2079,Lumphat,Rotanokiri,Cambodia,CB,Provincial capital,106.98100231020155,13.507002072937704,7,Less than 50,000,0
2078,Qui Nhon,Binh Dinh,Vietnam,VM,Provincial capital,109.23332443657172,13.76666099300475,5,100,000 to 249,999,0
2077,Play Cu,Gia Lai,Vietnam,VM,Provincial capital,108.01666838620807,13.950000007902226,5,100,000 to 249,999,0
2076,Kon Tum,Kon Tum,Vietnam,VM,Provincial capital,108.01500328963064,14.349996021159843,7,Less than 50,000,0
2075,Quang Ngai,Quang Ngai,Vietnam,VM,Provincial capital,108.8119984070805,15.123996025798636,7,Less than 50,000,0
2074,Da Nang,Quang Nam-Da Nang,Vietnam,VM,Provincial capital,108.21500137900128,16.052004059669702,3,500,000 to 999,999,57650
2073,Hue,Thua Thien Hue,Vietnam,VM,Provincial capital,107.58500128286259,16.462997951424345,4,250,000 to 499,999,0
2072,Dong Ha,Quang Tri,Vietnam,VM,Provincial capital,107.13330039678479,16.849998036485566,7,Less than 50,000,0
2071,Haiphong,Hai Phong,Vietnam,VM,Other,106.67979044334626,20.86135204995504,3,500,000 to 999,999,57680
2070,Hai Duong,Hai Hung,Vietnam,VM,Provincial capital,106.33100434128457,20.942001007645477,6,50,000 to 99,999,0
2069,Phu Lang Thuong,Ha Bac,Vietnam,VM,Provincial capital,106.19199939154933,21.270995926019108,6,50,000 to 99,999,0
2068,Lang Son,Lang Son,Vietnam,VM,Provincial capital,106.75700131253623,21.84599703162063,7,Less than 50,000,0
2067,Thanh Hoa,Thanh Hoa,Vietnam,VM,Provincial capital,105.77700029879465,19.808999925638915,5,100,000 to 249,999,0
2066,Ninh Binh,Ninh Binh,Vietnam,VM,Provincial capital,105.9750003384659,20.252997050936766,7,Less than 50,000,0
2065,Hoa Binh,Hoa Binh,Vietnam,VM,Provincial capital,105.33300333898043,20.829996040754036,5,100,000 to 249,999,0
2064,Hanoi,Ha Noi,Vietnam,VM,National capital and provincial capital enclave,105.8200023859852,21.030003066242266,2,1,000,000 to 4,999,999,0
2063,Viet Tri,Vinh Phu,Vietnam,VM,Provincial capital,105.4279984060415,21.304998018928387,6,50,000 to 99,999,0
2062,Thai Nguyen,Bac Thai,Vietnam,VM,Provincial capital,105.86300430769202,21.55100404067261,5,100,000 to 249,999,0
2061,Yen Bai,Yen Bai,Vietnam,VM,Provincial capital,104.87500232451887,21.70500296830362,6,50,000 to 99,999,0
2060,Tuyen Quang,Tuyen Quang,Vietnam,VM,Provincial capital,105.21099935295807,21.817998023927174,7,Less than 50,000,0
2059,Thai Binh,Thai Binh,Vietnam,VM,Provincial capital,106.33302936482036,20.45030404504391,6,50,000 to 99,999,0
2058,Udon Thani,Udon Thani,Thailand,TH,Provincial capital,102.78999940194782,17.406998988040915,5,100,000 to 249,999,0
2057,Loei,Loei,Thailand,TH,Provincial capital,101.73500135940711,17.489996986271613,7,Less than 50,000,0
2056,Nong Khai,Nong Khai,Thailand,TH,Provincial capital,102.74699731475734,17.8839990159147,6,50,000 to 99,999,0
2055,Vientiane,Viangchan,Laos,LA,National and provincial capital,102.68023541476728,18.001736998690358,5,100,000 to 249,999,0
2054,Muang Xaignabouri,Xaignabouri,Laos,LA,Provincial capital,101.48400037889807,19.19500193384694,7,Less than 50,000,0
2053,Xiangkhoang,Xiangkhoang,Laos,LA,Provincial capital,103.3667013485971,19.333295965782852,7,Less than 50,000,0
2052,Tay Ninh,Tay Ninh,Vietnam,VM,Provincial capital,106.1469994201431,11.32299904778923,7,Less than 50,000,0
2051,Kampong Spoe,Kampong Spoe,Cambodia,CB,Provincial capital,104.51899832170025,11.451996042275887,7,Less than 50,000,0
2050,Prey Veng,Prey Veng,Cambodia,CB,Provincial capital,105.32400334469921,11.483999920002079,7,Less than 50,000,0
2049,Phnom Penh,Phnum Penh,Cambodia,CB,National and provincial capital,104.91318933368196,11.564739066286695,2,1,000,000 to 4,999,999,0
2048,Kampong Cham,Kampong Cham,Cambodia,CB,Provincial capital,105.46499740801622,11.990997005268719,6,50,000 to 99,999,0
2047,Kampong Chnang,Kampong Chhnang,Cambodia,CB,Provincial capital,104.66399742053366,12.257001065274855,6,50,000 to 99,999,0
2046,Kracheh,Kracheh,Cambodia,CB,Provincial capital,106.02399640927095,12.468996057992186,7,Less than 50,000,0
2045,Kampong Thum,Kampong Thum,Cambodia,CB,Provincial capital,104.88899744304862,12.711996069069704,7,Less than 50,000,0
2044,Stoeng Treng,Stoeng Treng,Cambodia,CB,Provincial capital,105.97400131361618,13.523004011800806,7,Less than 50,000,0
2043,Phnum Tbeng Meanchey,Preah Vihear,Cambodia,CB,Provincial capital,104.9667034393465,13.816700934731152,7,Less than 50,000,0
2042,Surin,Surin,Thailand,TH,Provincial capital,103.49700334721908,14.886000075087223,7,Less than 50,000,0
2041,Nakhon Ratchasima,Nakhon Ratchasima,Thailand,TH,Provincial capital,102.10200340620642,14.968998073317936,5,100,000 to 249,999,0
2040,Buriram,Buriram,Thailand,TH,Provincial capital,103.11200131185727,14.995998056161698,7,Less than 50,000,0
2039,Chaiyaphum,Chaiyaphum,Thailand,TH,Provincial capital,102.04000230560368,15.797997068493961,6,50,000 to 99,999,0
2038,Roi Et,Roi Et,Thailand,TH,Provincial capital,103.65499837424889,16.050995933218747,7,Less than 50,000,0
2037,Maha Sarakham,Maha Sarakham,Thailand,TH,Provincial capital,103.29800428269809,16.183997963221813,6,50,000 to 99,999,0
2036,Kalasin,Kalasin,Thailand,TH,Provincial capital,103.50900041604942,16.427996999149023,6,50,000 to 99,999,0
2035,Khon Kaen,Khon Kaen,Thailand,TH,Provincial capital,102.83699742305353,16.433001059515128,5,100,000 to 249,999,0
2034,Krong Kaoh Kong,Kaoh Kong,Cambodia,CB,Provincial capital,103.04263833971423,11.613933055548014,7,Less than 50,000,0
2033,Trat,Trat,Thailand,TH,Provincial capital,102.50900136404594,12.23700302701293,7,Less than 50,000,0
2032,Pouthisat,Pouthisat,Cambodia,CB,Provincial capital,103.92800437883685,12.534003003777975,6,50,000 to 99,999,0
2031,Chanthaburi,Chanthaburi,Thailand,TH,Provincial capital,102.11699738410223,12.60600295802799,6,50,000 to 99,999,0
2030,Rayong,Rayong,Thailand,TH,Provincial capital,101.28500131437713,12.677004052911974,7,Less than 50,000,0
2029,Batdambang,Batdambang,Cambodia,CB,Provincial capital,103.2039993043692,13.088996969516334,5,100,000 to 249,999,0
2028,Siemreab,Siemreab-Otdar Meanchey,Cambodia,CB,Provincial capital,103.86399629241713,13.368995982568533,6,50,000 to 99,999,0
2027,Prachin Buri,Prachin Buri,Thailand,TH,Provincial capital,101.3779983317388,14.04899994499599,7,Less than 50,000,0
2026,Attapu,Attapeu,Laos,LA,Provincial capital,106.8390002859172,14.8079970356214,7,Less than 50,000,0
2025,Champasak,Champasak,Laos,LA,Provincial capital,105.86670336392282,14.883300043706125,7,Less than 50,000,0
2024,Sisaket,Sisaket,Thailand,TH,Provincial capital,104.33300428697696,15.113997006667693,7,Less than 50,000,0
2023,Ubon Ratchathani,Ubon Ratchathani,Thailand,TH,Provincial capital,104.85700233595637,15.238998067239205,5,100,000 to 249,999,0
2022,Saravan,Saravan,Laos,LA,Provincial capital,106.42699843319528,15.715997929629303,7,Less than 50,000,0
2021,Yasothon,Yasothon,Thailand,TH,Provincial capital,104.15099741553487,15.787998049363004,7,Less than 50,000,0
2020,Savannakhet,Savannakhet,Laos,LA,Provincial capital,104.74700435488191,16.56099902915208,6,50,000 to 99,999,0
2019,Hon Gai,Quang Ninh,Vietnam,VM,Provincial capital,107.08100143762871,20.948003927377624,5,100,000 to 249,999,57700
2018,Fangcheng Gang,Guangxi,China,CH,Other,108.35000129322012,21.750002939709884,7,Less than 50,000,57745
2017,Phet Buri,Phetchaburi,Thailand,TH,Provincial capital,99.9500044242678,13.100003949614559,7,Less than 50,000,0
2016,Samut Songkhram,Samut Songkhram,Thailand,TH,Provincial capital,100.00099837928863,13.412996929125104,7,Less than 50,000,0
2015,Ratchaburi,Ratchaburi,Thailand,TH,Provincial capital,99.90000039249546,13.499999962872215,6,50,000 to 99,999,0
2014,Nakhon Pathom,Nakhon Pathom,Thailand,TH,Provincial capital,100.06399833925738,13.81799700274885,5,100,000 to 249,999,0
2013,Kanchanaburi,Kanchanaburi,Thailand,TH,Provincial capital,99.51669936366501,14.033303985418483,6,50,000 to 99,999,0
2012,Prachuap Khiri Khan,Prachuap Khiri Khan,Thailand,TH,Provincial capital,99.80000143055193,11.802995984728446,7,Less than 50,000,0
2011,Chon Buri,Chon Buri,Thailand,TH,Provincial capital,100.98700231276237,13.367996957718827,5,100,000 to 249,999,0
2010,Samut Sakhon,Samut Sakhon,Thailand,TH,Provincial capital,100.27400438387659,13.535999939997215,6,50,000 to 99,999,0
2009,Samut Prakan,Samut Prakan,Thailand,TH,Provincial capital,100.60399832709996,13.58800202146898,4,250,000 to 499,999,0
2008,Chachoengsao,Chachoengsao,Thailand,TH,Provincial capital,101.07600339620885,13.679000989131238,7,Less than 50,000,0
2007,Bangkok,Krung Thep,Thailand,TH,National and provincial capital,100.51667144183207,13.750001918531547,1,5,000,000 and greater,57450
2006,Nonthaburi,Nonthaburi,Thailand,TH,Provincial capital,100.51985733323617,13.848039071696977,7,Less than 50,000,0
2005,Pathum Thani,Pathum Thani,Thailand,TH,Provincial capital,100.53330337698523,14.01669902410178,7,Less than 50,000,0
2004,Nakhon Nayok,Nakhon Nayok,Thailand,TH,Provincial capital,101.21599843467621,14.200001963561558,7,Less than 50,000,0
2003,Saraburi,Saraburi,Thailand,TH,Provincial capital,100.91400333366263,14.513004044673368,7,Less than 50,000,0
2002,Nakhon Sawan,Nakhon Sawan,Thailand,TH,Provincial capital,100.1340004092917,15.701003951733496,7,Less than 50,000,0
2001,Phichit,Phichit,Thailand,TH,Provincial capital,100.34900141267573,16.439003979247275,7,Less than 50,000,0
2000,Kamphaeng Phet,Kamphaeng Phet,Thailand,TH,Provincial capital,99.52900241178098,16.4729969705553,6,50,000 to 99,999,0
1999,Phitsanulok,Phitsanulok,Thailand,TH,Provincial capital,100.26600341444507,16.81299903451085,5,100,000 to 249,999,0
1998,Phra Nakhon Si Ayutthaya,Phra Nakhon Si Ayutthaya,Thailand,TH,Provincial capital,100.56099640539306,14.3440020375453,6,50,000 to 99,999,0
1997,Supham Buri,Suphan Buri,Thailand,TH,Provincial capital,100.1289963489256,14.471000982332544,6,50,000 to 99,999,0
1996,Ang Thong,Ang Thong,Thailand,TH,Provincial capital,100.4499993994689,14.583302992391976,7,Less than 50,000,0
1995,Thahanbok Lop Buri,Lop Buri,Thailand,TH,Provincial capital,100.619001406597,14.796998991640738,7,Less than 50,000,0
1994,Sing Buri,Sing Buri,Thailand,TH,Provincial capital,100.40100332866385,14.886998934453278,7,Less than 50,000,0
1993,Chainat,Chai Nat,Thailand,TH,Provincial capital,100.12599943986014,15.179003952453458,7,Less than 50,000,0
1992,Uthai Thani,Uthai Thani,Thailand,TH,Provincial capital,100.02600031243303,15.379002041824098,7,Less than 50,000,0
1991,Phetchabun,Phetchabun,Thailand,TH,Provincial capital,101.15900139443957,16.418997004867776,6,50,000 to 99,999,0
1990,Tak,Tak,Thailand,TH,Provincial capital,99.11999730264081,16.877997044179022,7,Less than 50,000,0
1989,Sukhothai,Sukhothai,Thailand,TH,Provincial capital,99.7499973987796,17.01299695839784,7,Less than 50,000,0
1988,Uttaradit,Uttaradit,Thailand,TH,Provincial capital,100.1030043270491,17.62299901627467,6,50,000 to 99,999,0
1987,Phrae,Phrae,Thailand,TH,Provincial capital,100.16299844183484,18.150003075920814,7,Less than 50,000,0
1986,Lampang,Lampang,Thailand,TH,Provincial capital,99.48400244037472,18.291995998603873,5,100,000 to 249,999,0
1985,Lamphun,Lamphun,Thailand,TH,Provincial capital,99.07399830638488,18.50300106807278,7,Less than 50,000,0
1984,Nan,Nan,Thailand,TH,Provincial capital,100.7849974030584,18.775997971059503,7,Less than 50,000,0
1983,Chiang Mai,Chiang Mai,Thailand,TH,Provincial capital,99.00000030243542,18.786996015040163,5,100,000 to 249,999,0
1982,Phayao,Phayao,Thailand,TH,Provincial capital,99.90399632641058,19.159001956721927,7,Less than 50,000,0
1981,Port Blair,Andaman and Nicobar Islands,India,IN,Provincial capital,92.75832935215833,11.667563992675854,5,100,000 to 249,999,49720
1980,Tavoy,Tenasserim,Myanmar,BM,Provincial capital,98.20199738950194,14.084001062754961,5,100,000 to 249,999,49680
1979,Moulmein,Mon State,Myanmar,BM,Provincial capital,97.64503234790065,16.492679927930364,4,250,000 to 499,999,49660
1978,Bassein,Irrawaddy,Myanmar,BM,Provincial capital,94.73200231568316,16.77400198283672,5,100,000 to 249,999,49640
1977,Pa-an,Karen State,Myanmar,BM,Provincial capital,97.61670038708516,16.849998036485566,7,Less than 50,000,0
1976,Rangoon,Rangoon,Myanmar,BM,National and provincial capital,96.12488737553313,16.87222795285713,2,1,000,000 to 4,999,999,49650
1975,Sittwe,Arakan State,Myanmar,BM,Provincial capital,92.8950032990721,20.139002970463494,5,100,000 to 249,999,49620
1974,Magway,Magwe,Myanmar,BM,Provincial capital,94.91799635040645,20.1400019953132,6,50,000 to 99,999,0
1973,Chittagong,Chittagong,Bangladesh,BG,Provincial capital,91.82500234251799,22.329999004076242,2,1,000,000 to 4,999,999,49590
1972,Alor Setar,Kedah,Malaysia,MY,Provincial capital,100.36199734087212,6.1110000244204,5,100,000 to 249,999,49840
1971,Kangar,Perlis,Malaysia,MY,Provincial capital,100.18999842467863,6.433001934329784,6,50,000 to 99,999,0
1970,Satun,Satun,Thailand,TH,Provincial capital,100.06669837063855,6.616701041669342,7,Less than 50,000,0
1969,Songkhla,Songkhla,Thailand,TH,Provincial capital,100.59300028311925,7.197002919837635,7,Less than 50,000,57434
1968,Trang,Trang,Thailand,TH,Provincial capital,99.6149973190771,7.549002052623548,6,50,000 to 99,999,0
1967,Phatthalung,Phatthalung,Thailand,TH,Provincial capital,100.08099930297024,7.6149989216577785,7,Less than 50,000,0
1966,Krabi,Krabi,Thailand,TH,Provincial capital,98.91199840932231,8.052003038491392,7,Less than 50,000,49780
1965,Nakhon Si Thammarat,Nakhon Si Thammarat,Thailand,TH,Provincial capital,99.96499840216362,8.422001994356156,5,100,000 to 249,999,0
1964,Pinang,Pulau Pinang,Malaysia,MY,Provincial capital,100.31100338585131,5.364000002625369,5,100,000 to 249,999,49850
1963,Medan,Sumatera Utara,Indonesia,ID,Provincial capital,98.67600034282665,3.5849970511006175,2,1,000,000 to 4,999,999,0
1962,Ipoh,Perak,Malaysia,MY,Provincial capital,101.07600339620885,4.590999022836269,3,500,000 to 999,999,0
1961,Banda Aceh,Aceh,Indonesia,ID,Provincial capital,95.33333733240075,5.566662047939436,4,250,000 to 499,999,0
1960,Phuket,Phuket,Thailand,TH,Provincial capital,98.38500328579372,7.876997946147515,6,50,000 to 99,999,49770
1959,Phangnga,Phangnga,Thailand,TH,Provincial capital,98.5339983185423,8.451000026899319,7,Less than 50,000,0
1958,Surat Thani,Surat Thani,Thailand,TH,Provincial capital,99.33399928117515,9.13499992324191,5,100,000 to 249,999,0
1957,Ranong,Ranong,Thailand,TH,Provincial capital,98.63800231600221,9.9620010342022,7,Less than 50,000,0
1956,Chumphon,Chumphon,Thailand,TH,Provincial capital,99.17700344447869,10.493001027763487,6,50,000 to 99,999,0
1955,Pegu,Pegu,Myanmar,BM,Provincial capital,96.49800040289395,17.327996923725397,5,100,000 to 249,999,0
1954,Mae Hong Son,Mae Hong Son,Thailand,TH,Provincial capital,97.96899639755539,19.301003981006232,7,Less than 50,000,0
1953,Loikaw,Kayah State,Myanmar,BM,Provincial capital,97.20600337301485,19.66500001713885,7,Less than 50,000,0
1952,Chang Rai,Chiang Rai,Thailand,TH,Provincial capital,99.83300433312783,19.906001978516958,6,50,000 to 99,999,0
1951,Taunggyi,Shan State,Myanmar,BM,Provincial capital,97.03800039073647,20.781998994798656,5,100,000 to 249,999,0
1950,Sagaing,Sagaing,Myanmar,BM,Provincial capital,95.96199634896655,21.879998959046244,6,50,000 to 99,999,0
1949,Mandalay,Mandalay,Myanmar,BM,Provincial capital,96.08400033498893,21.976001987074582,2,1,000,000 to 4,999,999,0
1948,Shimonoseki,Chugoku,Japan,JA,Other,130.93329643483153,33.94999792730556,5,100,000 to 249,999,61700
1947,Louangphrabang,Louangphrabang,Laos,LA,Provincial capital,102.14199931724661,19.883996954438032,7,Less than 50,000,0
1946,Xam Nua,Houaphan,Laos,LA,Provincial capital,104.03330444431445,20.416697954530736,7,Less than 50,000,0
1945,Louang Namtha,Louang Namtha,Laos,LA,Provincial capital,101.41669834024489,20.950001977077033,7,Less than 50,000,0
1944,Son La,Son La,Vietnam,VM,Provincial capital,103.91000439027434,21.328002067856993,7,Less than 50,000,0
1943,Phongsali,Phongsali,Laos,LA,Provincial capital,102.09999642038942,21.68330392351029,7,Less than 50,000,0
1942,Luan Chau,Lai Chau,Vietnam,VM,Provincial capital,103.34300441958803,21.740003920578914,7,Less than 50,000,0
1941,Matsuyama,Shikoku,Japan,JA,Provincial capital,132.77499336703946,33.83499605134869,7,Less than 50,000,62030
1940,Hiroshima,Chugoku,Japan,JA,Provincial capital,132.44500835993372,34.37800204985789,6,50,000 to 99,999,61650
1939,Manado,Sulawesi Utara,Indonesia,ID,Provincial capital,124.84999831077786,1.4833350540563799,4,250,000 to 499,999,52040
1938,Davao,Southern Mindanao,Philippines,RP,Other,125.61368438088257,7.080084081174288,2,1,000,000 to 4,999,999,59430
1937,Koror,Palau,Palau,PS,National and provincial capital,134.4916803025583,7.340615927542824,7,Less than 50,000,0
1936,Sakon Nakhon,Sakon Nakhon,Thailand,TH,Provincial capital,104.15099741553487,17.162999952113715,6,50,000 to 99,999,0
1935,Muang Khammouan,Khammouan,Laos,LA,Provincial capital,104.80018534194082,17.396972995073526,7,Less than 50,000,0
1934,Dong Hoi,Quang Binh,Vietnam,VM,Provincial capital,106.62399928253318,17.463996028277567,7,Less than 50,000,0
1933,Ha Tinh,Ha Tinh,Vietnam,VM,Provincial capital,105.91669829409395,18.350000999807786,7,Less than 50,000,57530
1932,Vinh,Nghe An,Vietnam,VM,Provincial capital,105.67199744196874,18.668997064534143,7,Less than 50,000,0
1931,Nakhom Phanom,Nakhon Phanom,Thailand,TH,Provincial capital,104.71670131820346,17.38330205903185,7,Less than 50,000,0
1930,Galle,Southern,Sri Lanka,CE,Provincial capital,80.21799934748506,6.032996984954576,6,50,000 to 99,999,49250
1929,Ratnapura,Sabaragamuwa,Sri Lanka,CE,Provincial capital,80.38600232976344,6.693003074603772,7,Less than 50,000,0
1928,Colombo,Western,Sri Lanka,CE,National and provincial capital,79.8480003916203,6.927002925916379,3,500,000 to 999,999,49240
1927,Badulla,Uva,Sri Lanka,CE,Provincial capital,81.05599833694235,6.984998991002688,7,Less than 50,000,0
1926,Kandy,Central,Sri Lanka,CE,Provincial capital,80.63700331027249,7.283997017467144,5,100,000 to 249,999,0
1925,Puttalan,North Western,Sri Lanka,CE,Provincial capital,79.82600430365898,8.033004025079162,7,Less than 50,000,0
1924,Anuradhapura,North Central,Sri Lanka,CE,Provincial capital,80.38332943770243,8.350002040106117,6,50,000 to 99,999,0
1923,Trincomalee,Eastern,Sri Lanka,CE,Provincial capital,81.23300131350202,8.568998977405327,5,100,000 to 249,999,49290
1922,Mangalore,Karnataka,India,IN,Other,74.84300140220398,12.869001007367407,4,250,000 to 499,999,49030
1921,Bangalore,Karnataka,India,IN,Other,77.58773140897505,12.974751022913978,1,5,000,000 and greater,0
1920,Panaji,Goa,India,IN,Provincial capital,73.81800041705611,15.49199693196399,6,50,000 to 99,999,0
1919,Hyderabad,Andhra Pradesh,India,IN,Provincial capital,78.48500432833387,17.39500191921057,2,1,000,000 to 4,999,999,0
1918,Pune,Maharashtra,India,IN,Other,73.8522724138133,18.535743002918352,2,1,000,000 to 4,999,999,0
1917,Mumbai,Maharashtra,India,IN,Provincial capital,72.82600233448417,19.077002983340932,1,5,000,000 and greater,48840
1916,Silvassa,Dadra and Nagar Haveli,India,IN,Provincial capital,73.00179033001902,20.191545025114777,7,Less than 50,000,0
1915,Daman,Daman & Diu,India,IN,Provincial capital,72.84999630666124,20.416365001408735,7,Less than 50,000,0
1914,Cochin,Kerala,India,IN,Other,76.28041844567238,9.97015507601838,3,500,000 to 999,999,49130
1913,Trivandrum,Kerala,India,IN,Provincial capital,76.95199829695208,8.504000967737127,3,500,000 to 999,999,49170
1912,Madurai,Tamil Nadu,India,IN,Other,78.12172831160181,9.913985950527978,3,500,000 to 999,999,0
1911,Kavaratti,Lakshadweep,India,IN,Provincial capital,72.63315032596239,10.550952081294575,7,Less than 50,000,0
1910,Pondicherry,Pondicherry,India,IN,Provincial capital,79.83700234763964,11.933000940182383,5,100,000 to 249,999,49430
1909,Chennai,Tamil Nadu,India,IN,Provincial capital,80.24799640487791,13.061996986672558,2,1,000,000 to 4,999,999,49450
1908,Vishakhapatnam,Andhra Pradesh,India,IN,Other,83.33000130490338,17.749997961061926,2,1,000,000 to 4,999,999,49480
1907,Bhubaneshwar,Orissa,India,IN,Provincial capital,85.83499844447765,20.264004031035004,3,500,000 to 999,999,0
1906,Nagpur,Maharashtra,India,IN,Other,79.08911136182424,21.155750954567086,2,1,000,000 to 4,999,999,0
1905,Biratnagar,Kosi,Nepal,NP,Provincial capital,87.28329636949609,26.450000982929605,5,100,000 to 249,999,0
1904,Ilam,Mechi,Nepal,NP,Provincial capital,87.92600428678078,26.908001997391175,7,Less than 50,000,0
1903,Gangtok,Sikkim,India,IN,Provincial capital,88.61699735707131,27.329004009878023,7,Less than 50,000,0
1902,Paro,Paro,Bhutan,BT,Provincial capital,89.51670040396331,27.383301018733533,7,Less than 50,000,0
1901,Wangdue Prodrang,Wangdi Phodrang,Bhutan,BT,Provincial capital,89.91669641722095,27.433295948904664,7,Less than 50,000,0
1900,Thimphu,Thimphu,Bhutan,BT,National and provincial capital,89.6670004408472,27.442997924867623,6,50,000 to 99,999,0
1899,Punakha,Punakha,Bhutan,BT,Provincial capital,89.8333024165942,27.633302974392915,7,Less than 50,000,0
1898,Kolkata,West Bengal,India,IN,Provincial capital,88.33400143495365,22.5440009826106,2,1,000,000 to 4,999,999,49560
1897,Khulna,Khulna,Bangladesh,BG,Provincial capital,89.55800131913881,22.842999009075044,2,1,000,000 to 4,999,999,0
1896,Rajshahi,Rajshahi,Bangladesh,BG,Provincial capital,88.63900238115022,24.35799595029306,3,500,000 to 999,999,0
1895,Patna,Bihar,India,IN,Provincial capital,85.13499644378825,25.614000043171753,2,1,000,000 to 4,999,999,0
1894,Rajbiraj,Sagarmatha,Nepal,NP,Provincial capital,86.73329736252256,26.5332960243283,7,Less than 50,000,0
1893,Ramechhap,Janakpur,Nepal,NP,Provincial capital,86.08699828435275,27.325997999211317,7,Less than 50,000,0
1892,Bhimphedi,Narayani,Nepal,NP,Provincial capital,85.13000131953972,27.550998021726322,7,Less than 50,000,0
1891,Kathmandu,Bagmati,Nepal,NP,National and provincial capital,85.31295343364232,27.71201693165804,2,1,000,000 to 4,999,999,0
1890,Pokhara,Gandaki,Nepal,NP,Provincial capital,83.97199830438879,28.263995950612077,5,100,000 to 249,999,0
1889,Baglung,Dhawalagiri,Nepal,NP,Provincial capital,83.58329737827987,28.266695981993198,7,Less than 50,000,0
1888,Sallyan,Rapti,Nepal,NP,Provincial capital,82.18330231301869,28.349999959509496,7,Less than 50,000,0
1887,Dhangarhi,Seti,Nepal,NP,Provincial capital,80.59300236371595,28.694996982229895,6,50,000 to 99,999,0
1886,Dandeldhura,Mahakali,Nepal,NP,Provincial capital,80.60000430829777,29.300004081341857,7,Less than 50,000,0
1885,Jumla,Karnali,Nepal,NP,Provincial capital,82.21670138347437,29.250000049569493,7,Less than 50,000,0
1884,Varanasi,Uttar Pradesh,India,IN,Other,82.95633936824547,25.28200805024899,2,1,000,000 to 4,999,999,0
1883,Kanpur,Uttar Pradesh,India,IN,Other,80.31786344024644,26.457831007741362,2,1,000,000 to 4,999,999,0
1882,Lucknow,Uttar Pradesh,India,IN,Provincial capital,80.91999939787385,26.848997971337532,2,1,000,000 to 4,999,999,0
1881,Bhairawa,Lumbini,Nepal,NP,Provincial capital,83.38329928890919,27.533304012449392,6,50,000 to 99,999,0
1880,Nepalganj,Bheri,Nepal,NP,Provincial capital,81.62000139856318,28.063998026725113,7,Less than 50,000,0
1879,Urumqi,Xinjiang,China,CH,Provincial capital,87.58700141315862,43.78300203117983,2,1,000,000 to 4,999,999,0
1878,Dzhambul,Dzhambul,Kazakhstan,KZ,Provincial capital,71.37099934256821,42.88899592473435,4,250,000 to 499,999,0
1877,Dzhizak,Dzhizak,Uzbekistan,UZ,Provincial capital,67.84200040817947,40.098996042709125,5,100,000 to 249,999,0
1876,Gulistan,Syrdar'ya,Uzbekistan,UZ,Provincial capital,68.78330141341493,40.51670393747885,6,50,000 to 99,999,0
1875,Tashkent,Tashkent,Uzbekistan,UZ,National and provincial capital,69.34986930626746,41.247936014304656,2,1,000,000 to 4,999,999,0
1874,Shymkent,Chimkent,Kazakhstan,KZ,Provincial capital,69.57299737763125,42.30299694063584,4,250,000 to 499,999,0
1873,Talas,Talas,Kyrgyzstan,KG,Provincial capital,72.23699733971895,42.515001034954444,7,Less than 50,000,0
1872,Leninobod,Khudzhand,Tajikistan,TI,Provincial capital,69.00000342333038,39.7500029205899,5,100,000 to 249,999,0
1871,Baraki Barak,Lowgar,Afghanistan,AF,Provincial capital,68.96670331210282,33.966702013334,7,Less than 50,000,0
1870,Mayda Shahr,Vardak,Afghanistan,AF,Provincial capital,68.79999639784214,34.45000200410795,7,Less than 50,000,0
1869,Kabul,Kabol,Afghanistan,AF,National and provincial capital,69.13675829175344,34.530911929528706,2,1,000,000 to 4,999,999,0
1868,Mehtar Lam,Laghman,Afghanistan,AF,Provincial capital,70.16670028799331,34.64999992799494,7,Less than 50,000,0
1867,Bamian,Bamian,Afghanistan,AF,Provincial capital,67.81100432593689,34.82000095997272,7,Less than 50,000,0
1866,Charikar,Parvan,Afghanistan,AF,Provincial capital,69.1700042898245,35.01399596412754,6,50,000 to 99,999,0
1865,Mahmud-E Eraqi,Kapisa,Afghanistan,AF,Provincial capital,69.33330042038844,35.01669599550866,7,Less than 50,000,0
1864,Baghlan,Baghlan,Afghanistan,AF,Provincial capital,68.70300328108169,36.13200306823832,5,100,000 to 249,999,0
1863,Aybak,Samangan,Afghanistan,AF,Provincial capital,68.04000028236703,36.261000062724975,7,Less than 50,000,0
1862,Peshawar,North-west Frontier,Pakistan,PK,Provincial capital,71.54499630846115,34.00399805847676,2,1,000,000 to 4,999,999,0
1861,Asadabad,Konarha,Afghanistan,AF,Provincial capital,71.15000435556959,34.86599995622867,6,50,000 to 99,999,0
1860,Konduz,Konduz,Afghanistan,AF,Provincial capital,68.85999928326183,36.72700204661808,5,100,000 to 249,999,0
1859,Taloqan,Takhar,Afghanistan,AF,Provincial capital,69.54000341117293,36.72999895568351,6,50,000 to 99,999,0
1858,Feyzabad,Badakhshan,Afghanistan,AF,Provincial capital,70.57899934936691,37.121004076261144,7,Less than 50,000,0
1857,Qurghonteppa,Kurgan Tyube,Tajikistan,TI,Provincial capital,68.79999639784214,37.83333593341925,6,50,000 to 99,999,0
1856,Kulob,Kulyab,Tajikistan,TI,Provincial capital,69.78099643643344,37.911995943011526,6,50,000 to 99,999,0
1855,Dushanbe,Dushanbe,Tajikistan,TI,National and provincial capital,68.90000429590324,38.62999793226339,3,500,000 to 999,999,0
1854,Jalabad,Nangarhar,Afghanistan,AF,Provincial capital,70.46669733930744,34.4332979180795,5,100,000 to 249,999,0
1853,Kashi,Xinjiang,China,CH,Other,75.99999629090397,39.48000292666862,4,250,000 to 499,999,0
1852,Fergana,Fergana,Uzbekistan,UZ,Provincial capital,71.78599843532291,40.385997000343195,5,100,000 to 249,999,0
1851,Osh,Osh,Kyrgyzstan,KG,Provincial capital,72.79900235164041,40.52400292522869,5,100,000 to 249,999,0
1850,Andizhan,Andizhan,Uzbekistan,UZ,Provincial capital,72.34499743657764,40.794002919149946,4,250,000 to 499,999,0
1849,Namangan,Namangan,Uzbekistan,UZ,Provincial capital,71.6799963881636,40.99899596728547,4,250,000 to 499,999,0
1848,Naryn,Naryn,Kyrgyzstan,KG,Provincial capital,75.99799840668821,41.42500204013838,7,Less than 50,000,0
1847,Karakol,Issyk-Kul',Kyrgyzstan,KG,Provincial capital,78.39000032515523,42.48000008267913,6,50,000 to 99,999,0
1846,Bishkek,Bishkek,Kyrgyzstan,KG,National and provincial capital,74.77000242310424,42.879995930453106,3,500,000 to 999,999,0
1845,Almaty,Alma-Ata,Kazakhstan,KZ,Provincial capital,76.91262344608437,43.25506199595806,2,1,000,000 to 4,999,999,0
1844,Ahmadabad,Gujarat,India,IN,Other,72.56686534987776,23.039793003839094,2,1,000,000 to 4,999,999,0
1843,Gandhinagar,Gujarat,India,IN,Provincial capital,72.66666639336503,23.200002036743385,7,Less than 50,000,0
1842,Hyderabad,Sind,Pakistan,PK,Other,68.3664753810643,25.38018007259654,2,1,000,000 to 4,999,999,0
1841,Faisalabad,Punjab,Pakistan,PK,Other,73.083456350278,31.40895596453469,2,1,000,000 to 4,999,999,0
1840,Ghazni,Ghazni,Afghanistan,AF,Provincial capital,68.41999842284642,33.551999963747335,5,100,000 to 249,999,0
1839,Gardez,Paktia,Afghanistan,AF,Provincial capital,69.2240044209957,33.597998960003295,5,100,000 to 249,999,0
1838,Rawalpindi,Punjab,Pakistan,PK,Other,73.04374838080457,33.60580201097864,2,1,000,000 to 4,999,999,0
1837,Islamabad,Punjab,Pakistan,PK,National capital,73.0605423244599,33.71815796871092,3,500,000 to 999,999,0
1836,Zareh Sharan,Paktika,Afghanistan,AF,Provincial capital,68.41670430512931,32.85000007884222,7,Less than 50,000,0
1835,New Delhi,Delhi,India,IN,National capital,77.21675130049576,28.56872699296076,4,250,000 to 499,999,0
1834,Bhopal,Madhya Pradesh,India,IN,Provincial capital,77.41199736111304,23.229998928652602,2,1,000,000 to 4,999,999,0
1833,Jaipur,Rajasthan,India,IN,Provincial capital,75.80099739186669,26.90499598672447,2,1,000,000 to 4,999,999,0
1832,Delhi,Delhi,India,IN,Provincial capital,77.21666144286891,28.6666650214144,1,5,000,000 and greater,0
1831,Chandigarh,Chandigarh,India,IN,Provincial capital enclave,76.78400441627497,30.73799700794377,3,500,000 to 999,999,0
1830,Simla,Himachal Pradesh,India,IN,Provincial capital,77.1660004409701,31.104000029893374,5,100,000 to 249,999,0
1829,Lahore,Punjab,Pakistan,PK,Provincial capital,74.34099944118586,31.545000080642133,1,5,000,000 and greater,0
1828,Amritsar,Punjab,India,IN,Other,74.87155842079576,31.630886927108914,2,1,000,000 to 4,999,999,0
1827,Srinagar,Jammu & Kashmir,India,IN,Provincial capital,74.80400435052985,34.08100207309289,7,Less than 50,000,0
1826,Quetta,Baluchistan,Pakistan,PK,Provincial capital,67.01799637176828,30.209004000199467,3,500,000 to 999,999,0
1825,Zaranj,Nimruz,Afghanistan,AF,Provincial capital,61.88699729693076,31.11200099932492,7,Less than 50,000,0
1824,Lashkar Gah,Helmand,Afghanistan,AF,Provincial capital,64.35999932941274,31.58299794198288,7,Less than 50,000,0
1823,Kandahar,Quandahar,Afghanistan,AF,Provincial capital,65.70000044537178,31.610996949676366,4,250,000 to 499,999,0
1822,Qalat,Zabol,Afghanistan,AF,Provincial capital,66.8999974212623,32.104997941262944,7,Less than 50,000,0
1821,Farah,Farah,Afghanistan,AF,Provincial capital,62.11600235496218,32.37499793518419,7,Less than 50,000,0
1820,Tarin Kowt,Oruzgan,Afghanistan,AF,Provincial capital,65.86669842351486,32.633298068926784,7,Less than 50,000,0
1819,Muscat,Masqat,Oman,MU,National and provincial capital,58.588002445423115,23.606999994582893,3,500,000 to 999,999,0
1818,Karachi,Sind,Pakistan,PK,Provincial capital,67.02800432701684,24.893000979370782,1,5,000,000 and greater,48600
1817,Fujairad,Al Fujayrah,United Arab Emirates,AE,Provincial capital,56.34999928910344,25.11900002673546,6,50,000 to 99,999,48262
1816,Al Kasab,Musandam,Oman,MU,Other,56.30102142150088,26.192493019462944,7,Less than 50,000,0
1815,Bandar-E Abbas,Hormozgan,Iran,IR,Provincial capital,56.274003400938255,27.195012056626503,7,Less than 50,000,48520
1814,Zahedan,Sistan va Baluchestan,Iran,IR,Provincial capital,60.87300329188114,29.500002005228826,3,500,000 to 999,999,0
1813,Kerman,Kerman,Iran,IR,Provincial capital,57.06700241898929,30.2799959934822,3,500,000 to 999,999,0
1812,Herat,Herat,Afghanistan,AF,Provincial capital,62.18700328436251,34.34499898179836,7,Less than 50,000,0
1811,Chaghcharan,Ghowr,Afghanistan,AF,Provincial capital,65.25000040034178,34.51670102030753,7,Less than 50,000,0
1810,Qal eh-ye,Badghis,Afghanistan,AF,Provincial capital,63.133299413846494,34.98300004736865,7,Less than 50,000,0
1809,Meymaneh,Faryab,Afghanistan,AF,Provincial capital,64.77599728153348,35.91999897391973,7,Less than 50,000,0
1808,Sheberghan,Jowzjan,Afghanistan,AF,Provincial capital,65.74400139192835,36.662004036949895,6,50,000 to 99,999,0
1807,Mazar-E Sharif,Balkh,Afghanistan,AF,Provincial capital,67.11000330039784,36.70399799768947,4,250,000 to 499,999,0
1806,Termez,Surkhandar'ya,Uzbekistan,UZ,Provincial capital,67.24999833886514,37.2500010707478,5,100,000 to 249,999,0
1805,Karshi,Kashkadar'ya,Uzbekistan,UZ,Provincial capital,65.75000431166052,38.88330294175746,5,100,000 to 249,999,0
1804,Chardzhev,Chardzhou,Turkmenistan,TX,Provincial capital,63.57300339657752,39.087998946724944,7,Less than 50,000,0
1803,Samarkand,Samarkand,Uzbekistan,UZ,Provincial capital,66.94800340333526,39.65799599196036,4,250,000 to 499,999,0
1802,Bukhara,Bukhara,Uzbekistan,UZ,Provincial capital,64.42200043001546,39.76599592333541,5,100,000 to 249,999,0
1801,Navoi,Navoi,Uzbekistan,UZ,Provincial capital,65.33330437785807,40.0667040579325,5,100,000 to 249,999,0
1800,Kyzylorda,Kzyl-Orda,Kazakhstan,KZ,Provincial capital,65.48300139228834,44.866997940780074,4,250,000 to 499,999,0
1799,Mashhad,Khorasan,Iran,IR,Provincial capital,59.59700132622422,36.289997929784455,2,1,000,000 to 4,999,999,0
1798,Mary,Mary,Turkmenistan,TX,Provincial capital,61.839000416459044,37.5910019940694,5,100,000 to 249,999,0
1797,Ashgabat,Ashkhabad,Turkmenistan,TX,National and provincial capital,58.39013744041768,37.95041694606848,3,500,000 to 999,999,0
1796,Urgench,Khorezm,Uzbekistan,UZ,Provincial capital,60.68330143029311,41.583303046453814,5,100,000 to 249,999,0
1795,Dashkhovuz,Tashauz,Turkmenistan,TX,Provincial capital,59.95700142844169,41.83399804767729,7,Less than 50,000,0
1794,Nukus,Karakalpakstan,Uzbekistan,UZ,Provincial capital,59.61670232131815,42.46669800971349,5,100,000 to 249,999,0
1793,Kermanshah,Bakhtaran,Iran,IR,Provincial capital,47.057004440156646,34.307999979823634,3,500,000 to 999,999,0
1792,Sanandaj,Kordestan,Iran,IR,Provincial capital,46.99400431470419,35.318997075807786,4,250,000 to 499,999,0
1791,As-Sulaymaniyah,As Sulaymaniyah,Iraq,IZ,Provincial capital,45.45399633874058,35.559000012336185,3,500,000 to 999,999,0
1790,Zanjan,Zanjan,Iran,IR,Provincial capital,48.484998347627595,36.67100403123114,4,250,000 to 499,999,0
1789,Rasht,Gilan,Iran,IR,Provincial capital,49.59299733100613,37.274003979042455,3,500,000 to 999,999,0
1788,Orumiyeh,Azarbayjan-e Bakhtari,Iran,IR,Provincial capital,45.072000314045454,37.537002028381906,7,Less than 50,000,0
1787,Tabriz,Azarbayjan-e Khavari,Iran,IR,Provincial capital,46.28999744398212,38.080997950139576,2,1,000,000 to 4,999,999,0
1786,Naxcivian,Nakhichevan,Azerbaijan,AJ,Provincial capital,45.414000427700415,39.22000195187829,6,50,000 to 99,999,0
1785,Mangyshlak,Mangyshlak,Kazakhstan,KZ,Provincial capital,51.14173539740313,43.69045496388713,7,Less than 50,000,0
1784,Arak,Markazi,Iran,IR,Provincial capital,49.69999840301514,34.08333307591431,3,500,000 to 999,999,0
1783,Hamadan,Hamadan,Iran,IR,Provincial capital,48.50900142140591,34.793000977128955,3,500,000 to 999,999,0
1782,Turkmenbashi,Krasnovodsk,Turkmenistan,TX,Provincial capital,52.95799831863292,40.024998038759676,6,50,000 to 99,999,0
1781,Baku,Baku,Azerbaijan,AJ,National and provincial capital,49.81599930382175,40.32399606522412,2,1,000,000 to 4,999,999,0
1780,Machackala,Respublika Dagestan,Russia,RS,Provincial capital,47.511000419101805,42.97599895848144,4,250,000 to 499,999,0
1779,Groznyy,Chechenskaya Respublika,Russia,RS,Provincial capital,45.684000421621676,43.31099696207091,5,100,000 to 249,999,0
1778,Abu Dhabi,Abu Zaby,United Arab Emirates,AE,National and provincial capital,54.37099841369172,24.47600400240032,3,500,000 to 999,999,48278
1777,Dubai,Dubayy,United Arab Emirates,AE,Provincial capital,55.32900333947199,25.271001070150746,2,1,000,000 to 4,999,999,48275
1776,Doha,Ad Dawhah,Qatar,QA,National and provincial capital,51.53233541398339,25.284356925305584,4,250,000 to 499,999,48290
1775,Sharjah,Ash Shariqah,United Arab Emirates,AE,Provincial capital,55.411002312852986,25.371999056943917,3,500,000 to 999,999,48270
1774,Ajman,'Ajman,United Arab Emirates,AE,Provincial capital,55.44108939335638,25.40285993903707,5,100,000 to 249,999,0
1773,Umm Al Qaywayn,Umm al Qaywayn,United Arab Emirates,AE,Provincial capital,55.562454281487504,25.578333019168742,7,Less than 50,000,48272
1772,Ra's Al-Khaymah,Ra's al Khaymah,United Arab Emirates,AE,Provincial capital,55.960839311324264,25.78899603391438,5,100,000 to 249,999,0
1771,Al-Jahrah,Al Jahrah,Kuwait,KU,Provincial capital,47.69600436509299,29.331999022950463,7,Less than 50,000,0
1770,Al Basrah,Al Basrah,Iraq,IZ,Other,47.76086734009539,30.503492927922046,2,1,000,000 to 4,999,999,48400
1769,An-Nasiriyah,Dhi Qar,Iraq,IZ,Provincial capital,46.25600428719042,31.042997954140358,4,250,000 to 499,999,0
1768,As-Samawah,Al Muthanna,Iraq,IZ,Provincial capital,45.28199742254705,31.314995997761024,5,100,000 to 249,999,0
1767,Ahvaz,Khuzestan,Iran,IR,Provincial capital,48.68399741214853,31.317002983578025,3,500,000 to 999,999,0
1766,Al 'Amarah,Maysan,Iraq,IZ,Provincial capital,47.15100031688434,31.836995997041075,4,250,000 to 499,999,0
1765,Al-Kut,Wasit,Iraq,IZ,Provincial capital,45.819000335840485,32.50199704545512,4,250,000 to 499,999,0
1764,Khorramabad,Lorestan,Iran,IR,Provincial capital,48.35300444407548,33.48399594341247,4,250,000 to 499,999,0
1763,Ilam,Ilam,Iran,IR,Provincial capital,46.42299930850152,33.63900299749443,5,100,000 to 249,999,0
1762,Riyadh,Ar Riyad,Saudi Arabia,SA,National and provincial capital,46.77000331703891,24.650000968293252,2,1,000,000 to 4,999,999,0
1761,Sitrah,Sitrah,Bahrain,BA,Provincial capital,50.613849309854224,26.100000065326768,7,Less than 50,000,48320
1760,Ar Rifa,Ar Rifa wa al Mintaqah al Janubiyah,Bahrain,BA,Provincial capital,50.549004372570664,26.12099696295472,7,Less than 50,000,0
1759,Jidd Hafs,Jidd Hafs,Bahrain,BA,Provincial capital,50.53787129392424,26.21595595457809,7,Less than 50,000,0
1758,Manama,Al Manamah,Bahrain,BA,National and provincial capital,50.58333941860195,26.216667037861068,5,100,000 to 249,999,48310
1757,Al-Muharraq,Al Muharraq,Bahrain,BA,Provincial capital,50.61600043193826,26.261999962389346,6,50,000 to 99,999,0
1756,Ad Damman,Ash Sharqiyah,Saudi Arabia,SA,Provincial capital,50.083299431845575,26.33329793495766,7,Less than 50,000,48335
1755,Bushehr,Bushehr,Iran,IR,Provincial capital,50.83299931953806,28.922003990561876,7,Less than 50,000,48470
1754,Al-Ahmadi,Al Ahmadi,Kuwait,KU,Provincial capital,48.068001370657164,29.096999981304513,7,Less than 50,000,48361
1753,Hawalli,Hawalli,Kuwait,KU,Provincial capital,47.99999735032227,29.333339937039796,7,Less than 50,000,0
1752,Kuwait,Al Kuwayt,Kuwait,KU,National and provincial capital,47.97404140388349,29.38591806712872,6,50,000 to 99,999,48370
1751,Shiraz,Fars,Iran,IR,Provincial capital,52.53100232253152,29.601999016871755,2,1,000,000 to 4,999,999,0
1750,Yasuj,Kohkiluyeh va buyer Ahmadi,Iran,IR,Provincial capital,51.59400339598045,30.659004045229466,7,Less than 50,000,0
1749,Yazd,Yazd,Iran,IR,Provincial capital,54.360999394560764,31.896999047944373,4,250,000 to 499,999,0
1748,Shahr-E Kord,Chahar Mahall va Bakhtiari,Iran,IR,Provincial capital,50.853996382649655,32.32099796949669,5,100,000 to 249,999,0
1747,Esfahan,Esfahan,Iran,IR,Provincial capital,51.678999443910556,32.65100101432127,2,1,000,000 to 4,999,999,0
1746,Mogadishu,Banaadir,Somalia,SO,National and provincial capital,45.34414232844949,2.0411730219592057,2,1,000,000 to 4,999,999,47160
1745,Jawhar,Shabeellaha Dhexe,Somalia,SO,Provincial capital,45.50000443659778,2.7999990024811505,7,Less than 50,000,0
1744,Beledweyne,Hiiraan,Somalia,SO,Provincial capital,45.19999828368239,4.734000071970292,6,50,000 to 99,999,0
1743,Dhuusa Mareeb,Galguduud,Somalia,SO,Provincial capital,46.50800429254919,5.741999927921691,7,Less than 50,000,0
1742,Gaalkacyo,Mudug,Somalia,SO,Provincial capital,47.42399738535471,6.773003998285357,6,50,000 to 99,999,0
1741,Garoowe,Nugaal,Somalia,SO,Provincial capital,48.48200143856216,8.40500103064335,7,Less than 50,000,0
1740,Burao,Togdheer,Somalia,SO,Provincial capital,45.5333043823417,9.5333040315694,6,50,000 to 99,999,0
1739,Ceerigaabo,Sanaag,Somalia,SO,Provincial capital,47.333304396978065,10.583298013744033,7,Less than 50,000,0
1738,Laascaanood,Sool,Somalia,SO,Provincial capital,47.31669943566137,8.433297081504811,6,50,000 to 99,999,0
1737,Tehran,Tehran,Iran,IR,National and provincial capital,51.44799633617972,35.77400101572024,1,5,000,000 and greater,0
1736,Boosaaso,Bari,Somalia,SO,Provincial capital,49.16670331658646,11.259144033754106,7,Less than 50,000,0
1735,Aden,Aden,Yemen,YM,Other,45.041499358910755,12.76624806636995,3,500,000 to 999,999,48190
1734,Al Bayda,Al Bayda',Yemen,YM,Provincial capital,45.57400244054722,13.978998040445374,7,Less than 50,000,0
1733,'Ataq,'Ataq,Yemen,YM,Provincial capital,46.80000037443179,14.550003046648074,7,Less than 50,000,0
1732,Al Mukalla,Hadhramaut,Yemen,YM,Provincial capital,50.00000439044686,15.000002926194409,4,250,000 to 499,999,0
1731,Marib,Ma'rib,Yemen,YM,Provincial capital,45.333999338535165,15.420996002563681,7,Less than 50,000,0
1730,Semnan,Semnan,Iran,IR,Provincial capital,53.39600129483256,35.5719959405326,5,100,000 to 249,999,0
1729,Sari,Mazandaran,Iran,IR,Provincial capital,53.05300232181157,36.564002959222144,4,250,000 to 499,999,0
1728,Olgiy,Bayan-Olgiy,Mongolia,MG,Provincial capital,89.96699732667767,48.96199798648907,7,Less than 50,000,0
1727,Semipalatinsk,Semipalatinsk,Kazakhstan,KZ,Provincial capital,80.23599933604757,50.417000978405035,4,250,000 to 499,999,0
1726,Gorno-Altaysk,Respublika Altay,Russia,RS,Provincial capital,85.9670012841473,51.954002943701994,6,50,000 to 99,999,0
1725,Barnaul,Altayskiy kray,Russia,RS,Provincial capital,83.75000429254054,53.35000207504797,3,500,000 to 999,999,0
1724,Novokuznetsk,Kemerovskaya oblast',Russia,RS,Other,87.17000443618818,53.70000299265083,3,500,000 to 999,999,0
1723,Novosibirsk,Novosibirskaya oblast',Russia,RS,Provincial capital,82.9430013853258,55.03200297369466,2,1,000,000 to 4,999,999,0
1722,Kemerovo,Kemerovskaya oblast',Russia,RS,Provincial capital,86.05400431789441,55.38500096584662,4,250,000 to 499,999,0
1721,Ust'-Kamenogorsk,East Kazakhstan,Kazakhstan,KZ,Provincial capital,82.6000024123048,50.00000400143459,4,250,000 to 499,999,0
1720,Taldykorgan,Taldy Kurgan,Kazakhstan,KZ,Provincial capital,78.37800342180853,45.012996064463174,5,100,000 to 249,999,0
1719,Zhezkazgan,Dzhezkazgan,Kazakhstan,KZ,Provincial capital,67.70999740302611,47.78100002401078,5,100,000 to 249,999,0
1718,Karaganda,Karaganda,Kazakhstan,KZ,Other,73.20263437185474,49.879206060319355,4,250,000 to 499,999,0
1717,Astana,Tselinograd,Kazakhstan,KZ,National and provincial capital,71.43200141832125,51.18900293334441,4,250,000 to 499,999,0
1716,Pavlodar,Pavlodar,Kazakhstan,KZ,Provincial capital,76.96299634093273,52.28199900270957,4,250,000 to 499,999,0
1715,Kokshetau,Kokchetav,Kazakhstan,KZ,Provincial capital,69.40299634565346,53.27399691979788,5,100,000 to 249,999,0
1714,Omsk,Omskaya oblast',Russia,RS,Provincial capital,73.25000142152012,55.06299905593723,2,1,000,000 to 4,999,999,0
1713,Petropavlovsk,North Kazakhstan,Kazakhstan,KZ,Provincial capital,69.21669633164458,54.883296047996495,5,100,000 to 249,999,0
1712,Igarka,Krasnoyarskiy kray,Russia,RS,Other,86.5992873715522,67.49385301499672,7,Less than 50,000,62730
1711,Khanty-Mansiysk,Khanty-Mansiyskiy avtonomnyy okrug,Russia,RS,Provincial capital,69.00000342333038,61.01700297685259,6,50,000 to 99,999,0
1710,Tomsk,Tomskaya oblast',Russia,RS,Provincial capital,84.97099833154263,56.47799703521178,4,250,000 to 499,999,0
1709,Turgay,Turgay,Kazakhstan,KZ,Provincial capital,63.498996291026856,49.62600001005342,7,Less than 50,000,0
1708,Aktyubinsk,Aktyubinsk,Kazakhstan,KZ,Provincial capital,57.23100036575124,50.27100302020557,4,250,000 to 499,999,0
1707,Kostanay,Kustanay,Kazakhstan,KZ,Provincial capital,63.61000239855223,53.20199696554784,5,100,000 to 249,999,0
1706,Chelyabinsk,Chelyabinskaya oblast',Russia,RS,Provincial capital,61.39299630534419,55.14499802931822,2,1,000,000 to 4,999,999,0
1705,Kurgan,Kurganskaya oblast',Russia,RS,Provincial capital,65.33299839857247,55.43900093153416,4,250,000 to 499,999,0
1704,Astrakhan,Astrakhanskaya oblast',Russia,RS,Provincial capital,47.99999735032227,46.25000097844599,3,500,000 to 999,999,0
1703,Atyrau,Gur'yev,Kazakhstan,KZ,Provincial capital,51.9333393882083,47.116673983442,5,100,000 to 249,999,0
1702,Saratov,Saratovskaya oblast',Russia,RS,Provincial capital,45.95300139069323,51.49099803435795,3,500,000 to 999,999,0
1701,Penza,Penzenskaya oblast',Russia,RS,Provincial capital,45.00299743434451,53.197002006783,3,500,000 to 999,999,0
1700,Kuybyskev,Samarskaya oblast',Russia,RS,Provincial capital,50.149998282561484,53.19999908133208,2,1,000,000 to 4,999,999,0
1699,Saransk,Respublika Mordoviya,Russia,RS,Provincial capital,45.16700431722408,54.18600301480584,4,250,000 to 499,999,0
1698,Ul'yanovsk,Ul'yanovskaya oblast',Russia,RS,Provincial capital,48.362004438356735,54.30500099016153,3,500,000 to 999,999,0
1697,Kazan',Respublika Tatarstan,Russia,RS,Provincial capital,49.14546332346333,55.73301293535132,2,1,000,000 to 4,999,999,0
1696,Ceboksary,Chuvashskaya Respublika,Russia,RS,Provincial capital,47.25000041946177,56.150000976204176,4,250,000 to 499,999,0
1695,Ural'sk,Ural'sk,Kazakhstan,KZ,Provincial capital,51.35599834366778,51.22299592465246,5,100,000 to 249,999,0
1694,Orenburg,Orenburgskaya oblast',Russia,RS,Provincial capital,55.107000391506084,51.782004027508464,3,500,000 to 999,999,0
1693,Ufa,Respublika Bashkortostan,Russia,RS,Provincial capital,56.096001399528944,54.82199692907548,2,1,000,000 to 4,999,999,0
1692,Sverdlovsk,Sverdlovskaya oblast',Russia,RS,Provincial capital,60.610131341089925,56.846547016157885,2,1,000,000 to 4,999,999,0
1691,Tyumen,Tyumenskaya oblast',Russia,RS,Provincial capital,65.53333837718273,57.15000002820768,3,500,000 to 999,999,0
1690,Salekhard,Yamalo-Nenetskiy avtonomnyy okrug,Russia,RS,Provincial capital,66.58000233168625,66.57000292354299,7,Less than 50,000,0
1689,Kotlas,Arkhangel'skaya oblast',Russia,RS,Other,46.65914134578054,61.25996707797604,6,50,000 to 99,999,0
1688,Vorkuta,Respublika Komi,Russia,RS,Other,64.04000440532033,67.5050039658783,6,50,000 to 99,999,0
1687,Nar'yan Mar,Nenetskiy avtonomnyy okrug,Russia,RS,Provincial capital,53.033004283549644,67.61699999665218,7,Less than 50,000,0
1686,Kudymkar,Komi-Permyatskiy avton. okrug,Russia,RS,Provincial capital,54.66699936560705,59.016995936727966,7,Less than 50,000,0
1685,Yaskar-Ola,Respublika Mariy-El,Russia,RS,Provincial capital,47.86667130331478,56.63332794081452,7,Less than 50,000,0
1684,Izevsk,Udmurtskaya Respublika,Russia,RS,Provincial capital,53.233335326042294,56.850002976893556,3,500,000 to 999,999,0
1683,Perm',Permskaya oblast',Russia,RS,Provincial capital,56.23245939026765,58.00023901650681,3,500,000 to 999,999,0
1682,Vyatka,Kirovskaya oblast',Russia,RS,Provincial capital,49.69999840301514,58.63332604482154,4,250,000 to 499,999,0
1681,Syktyvkar,Respublika Komi,Russia,RS,Provincial capital,50.766660395780576,61.66666799264756,5,100,000 to 249,999,0
1680,Sumy,Sumy,Ukraine,UP,Provincial capital,34.83330342195066,50.94999902166574,4,250,000 to 499,999,0
1679,Voronezh,Voronezhskaya oblast',Russia,RS,Provincial capital,39.26899841169566,51.71499903202328,3,500,000 to 999,999,0
